t,throttle,steering,x,y,v_x,v_y,U,V,roll,pitch,yaw,p,q,r
0.0,0.0,0.0,0.0,-8.531937055522576e-06,0.0,0.0,0.0,0.0,0.003884396619077402,2.0490565483876452e-05,1.5654709435317306e-07,0.0,0.0,0.0
0.1,0.8349816203117371,0.19310805201530457,0.0,-8.532235369784757e-06,-2.8923276218506544e-08,-1.703257268559355e-08,-2.8923276265044e-08,-1.7032572606567576e-08,0.003884396619077402,2.0490565483876452e-05,1.5654709435317306e-07,0.0,0.0,0.0
0.2,0.28886324167251587,-0.9140968322753906,0.0,-8.518228241882753e-06,3.223820783659903e-07,-1.4812522408647055e-07,3.2238207796127336e-07,-1.4812522496730292e-07,0.003884396619077402,2.0490565483876452e-05,1.5654709435317306e-07,0.0,0.0,0.0
0.30000000000000004,0.9736543893814087,0.19294340908527374,0.0,-8.52046377985971e-06,-2.2669446764211898e-08,1.5770673655879364e-08,-2.2669446721122283e-08,1.5770673717818238e-08,0.003884396619077402,2.0490565483876452e-05,1.5654709435317306e-07,0.0,0.0,0.0
0.4,0.7902631759643555,0.8206787705421448,0.0,-8.515396984876134e-06,-4.001253159913176e-07,-1.9421376862283068e-07,-4.001253165219606e-07,-1.942137675295834e-07,0.003884396619077402,2.0490565483876452e-05,1.5654709435317306e-07,0.0,0.0,0.0
0.5,0.6881544589996338,-0.6200170516967773,0.0,-8.518526556144934e-06,-3.7113042594683066e-07,1.7223952397671383e-07,-3.711304254762271e-07,1.7223952499073948e-07,0.003884396619077402,2.0490565483876452e-05,1.5654709435317306e-07,0.0,0.0,0.0
0.6000000000000001,0.9814789891242981,-0.4305199086666107,0.0,-8.516440175299067e-06,4.145845196035225e-07,2.213491967495429e-07,4.1458452020830656e-07,2.2134919561678927e-07,0.003884396619077402,2.0490565483876452e-05,1.5654709435317306e-07,0.0,0.0,0.0
0.7000000000000001,0.6292731761932373,0.16207295656204224,-1.1444091796875e-05,-8.685717148182448e-06,0.0007038497715257108,3.81171685148729e-06,0.000703849769495368,3.8120917445090965e-06,0.003820616436181219,-0.0023495848940267034,-3.0517574656347978e-05,-0.002869480289518833,-0.1066277027130127,-0.00137289147824049
0.8,0.5999122858047485,0.07049620896577835,0.022083282470703125,0.0010805039200931787,0.3701590597629547,0.011902610771358013,0.3701700590342374,0.011555477591096125,-0.0021667479969951497,0.08664777119804463,0.053730872379215644,-0.05322495475411415,0.9795926213264465,0.6961184740066528
0.9,0.9957771301269531,0.0038921693339943886,0.09180450439453125,0.0020567402243614197,0.7723816633224487,0.003392206970602274,0.7723862942099505,0.002086485442952776,0.0006260907993059203,0.1665746532017321,0.09685896781097365,0.06352604925632477,0.5464594960212708,0.07133325934410095
1.0,0.7710225582122803,-0.011676442809402943,0.17773818969726562,0.002071434399113059,1.072922706604004,-0.0019106545951217413,1.0729183791070653,-0.0035967654512267895,0.005895158011766731,0.20221456223073672,0.09004116531005345,0.07036937773227692,0.33239784836769104,-0.2655015289783478
1.1,0.9976744651794434,0.9572438597679138,0.3208122253417969,0.0071171848103404045,1.4159704446792603,0.09277604520320892,1.416473930823851,0.0847425398790854,-0.025054929950002046,0.22263683884705632,0.32500882949818094,-0.6821712851524353,0.1027064397931099,5.458774089813232
1.2000000000000002,0.3935680389404297,-0.35614946484565735,0.4622039794921875,0.020920859649777412,1.6871488094329834,0.10291483998298645,1.6886121542549704,0.0751768711921783,-0.06692503901621893,0.22992464390024772,0.9415552792792671,0.12573353946208954,0.0898035392165184,4.562150001525879
1.3,0.8621806502342224,0.598649799823761,0.6698341369628906,0.027981234714388847,1.9820340871810913,0.11602863669395447,1.9839168074679647,0.07743299249646751,-0.029541014866084375,0.2274247864007008,1.1151412471691173,-0.30200260877609253,-0.0939919725060463,4.87859582901001
1.4000000000000001,0.6914306282997131,-0.1829642951488495,0.9065437316894531,0.0451706126332283,2.2553415298461914,0.06827714294195175,2.2563738456322247,0.0020623394771340647,-0.03634643715138867,0.21819036426975405,1.68164705184351,0.7722488641738892,-0.08024875074625015,-0.2871682941913605
1.5,0.3897651433944702,-0.7367032170295715,1.1230430603027344,0.03789542242884636,2.451916456222534,-0.11596019566059113,2.4494236260274955,-0.16020291985737337,0.08376958171065983,0.20563651549798923,1.03435080305422,1.5580958127975464,-0.1964975744485855,-11.1776762008667
1.6,0.6254974603652954,-0.8351972699165344,1.4063529968261719,0.0005396342021413147,2.605919361114502,-0.389272540807724,2.611913480877392,-0.34678061662852505,0.254680031129108,0.1755290414334889,-0.9331667667978004,1.603324294090271,-0.4131839871406555,-22.06584358215332
1.7000000000000002,0.2745729982852936,0.3122340440750122,1.6450309753417969,-0.05119900405406952,2.7322402000427246,-0.5116937756538391,2.756369562417521,-0.3597135890547287,0.3493725202839578,0.15610399529191377,-3.1722418282945317,0.25975096225738525,-0.1896297037601471,-22.750459671020508
1.8,0.014676030725240707,0.6690643429756165,1.9622383117675781,-0.09210621565580368,2.891993761062622,-0.22862963378429413,2.900969910861484,-0.016522703948925105,0.1663770861825695,0.13908997852078014,-4.1938483065251955,-2.564002513885498,-0.3259933590888977,0.6528133153915405
1.9000000000000001,0.0723990797996521,0.048241645097732544,2.2218017578125,-0.10138999670743942,2.895068407058716,-0.15415753424167633,2.8989652686399197,0.034438323600888304,-0.01940917678338374,0.0993314394009532,-3.728640003060604,-1.1633063554763794,-0.45933419466018677,3.4718310832977295
2.0,0.5465505123138428,-0.5455060601234436,2.540477752685547,-0.12490097433328629,2.8252761363983154,-0.28420817852020264,2.8379944960921524,-0.09352419895521472,-0.020385742081752825,0.048227965804687606,-3.85687427011641,0.8324512243270874,-0.425996333360672,-6.346863746643066
2.1,0.9559782147407532,-0.31807228922843933,2.788959503173828,-0.16330298781394958,2.7803051471710205,-0.4396272599697113,2.807594900977608,-0.20193987000758876,0.08727555727640592,0.0230518873733081,-4.871339746250413,1.193495750427246,-0.18243731558322906,-13.57465934753418
2.2,0.5047074556350708,0.7347671985626221,3.106243133544922,-0.21469846367835999,2.8939082622528076,-0.35010573267936707,2.9146148612914127,-0.04795064889302508,0.10296065221521211,0.03888426208215844,-5.955600196867543,-0.9505723118782043,0.18917080760002136,-2.313567638397217
2.3000000000000003,0.656952977180481,-0.2305551916360855,3.3712081909179688,-0.23979970812797546,2.983292818069458,-0.34245312213897705,3.0026538110848717,-0.037151984940740235,0.013641463689805896,0.05345305535229406,-5.839451505791585,-0.14013339579105377,0.1373092532157898,-1.774350881576538
2.4000000000000004,0.09627240896224976,0.9116112589836121,3.7132949829101562,-0.2917520999908447,3.0990731716156006,-0.4129742681980133,3.1259934690967413,-0.05447109679256085,0.057568447348936506,0.06765302752208317,-6.5920756276867145,-0.34154486656188965,0.12050282955169678,-3.569300413131714
2.5,0.5895671248435974,0.1643257886171341,4.064216613769531,-0.3187282383441925,3.173773765563965,-0.2213471382856369,3.1795763024207684,0.11013177422334519,-0.07028197982001883,0.06103456614288994,-5.973269997222093,-0.9593414068222046,-0.10543309897184372,7.541019439697266
2.6,0.5971452593803406,-0.7022521495819092,4.349529266357422,-0.33828800916671753,3.2158737182617188,-0.2986089885234833,3.2296898584468074,0.01070131203691349,-0.08743285081968746,0.056731542482049306,-5.494814986751819,0.6672650575637817,-0.030130337923765182,0.6177704930305481
2.7,0.5600486397743225,0.1263350397348404,4.710842132568359,-0.3784855604171753,3.2947263717651367,-0.28178903460502625,3.306404365270049,0.048136245714221926,-0.020874021369821753,0.05744188049390378,-5.722537599630193,-0.3881576657295227,0.017226746305823326,2.89424991607666
2.8000000000000003,0.5809881687164307,-0.6301020383834839,5.011013031005859,-0.40234100818634033,3.3629047870635986,-0.3398374021053314,3.3799776624656452,-0.019211141513204744,-0.03106689687515002,0.061089199845970714,-5.4447648941104045,0.6974217295646667,0.0264658834785223,-1.308744192123413
2.9000000000000004,0.7096189260482788,-0.8599587082862854,5.386379241943359,-0.46399927139282227,3.4038009643554688,-0.6335021257400513,3.454165106147493,-0.23649390634318773,0.13360634545459824,0.06050181552781147,-6.6263191960798595,1.7655609846115112,-0.05400509387254715,-15.931111335754395
3.0,0.3248649537563324,-0.7862890362739563,5.764514923095703,-0.5675550103187561,3.39310884475708,-1.000218152999878,3.510426943368223,-0.43649359815883815,0.35038748787799395,0.053015922517262115,-9.33652998873018,1.9924217462539673,-0.31765782833099365,-29.229427337646484
3.1,0.7480286955833435,0.0031480146571993828,6.063240051269531,-0.679624080657959,3.381831169128418,-1.1982990503311157,3.5590854989718523,-0.45344578674988,0.4815028427534938,0.04400690843131983,-12.250326074118458,0.5807894468307495,-0.16469211876392365,-29.948192596435547
3.2,0.4663081169128418,-0.8526132702827454,6.448207855224609,-0.8196778893470764,3.4626739025115967,-1.2870053052902222,3.67622499223843,-0.3631294774892613,0.4151217557368797,0.05622611736886563,-14.747822005798911,-0.23563292622566223,-0.1958197057247162,-22.70816993713379
3.3000000000000003,0.44209638237953186,-0.5529778599739075,6.755504608154297,-0.9554577469825745,3.4224376678466797,-1.5106146335601807,3.7162032938109615,-0.42996423164088937,0.43780251736527903,0.047346878456419356,-17.216202430264275,0.25595617294311523,-0.2774122655391693,-28.449949264526367
3.4000000000000004,0.30297571420669556,-0.2113039791584015,7.139118194580078,-1.1371105909347534,3.4887123107910156,-1.5382435321807861,3.803954870314691,-0.2592953843977024,0.38122792323507176,0.04810502029268722,-19.894132076688308,-1.4550416469573975,-0.06029309704899788,-15.745277404785156
3.5,0.7066306471824646,0.5727262496948242,7.458488464355469,-1.272787094116211,3.556884288787842,-1.4332586526870728,3.833979244554662,-0.07911612763665565,0.21652049527495992,0.04339902241894859,-20.764978266064716,-2.3511457443237305,-0.10497479140758514,-4.036440849304199
3.6,0.35683608055114746,0.34025970101356506,7.867198944091797,-1.4110773801803589,3.67740797996521,-1.1647504568099976,3.853913088128971,0.16530876231804048,-0.06399533709130396,0.03476565539315292,-20.030752851083218,-2.4749841690063477,-0.11516638845205307,12.506176948547363
3.7,0.5102230906486511,0.3422905206680298,8.207637786865234,-1.500753402709961,3.739013671875,-0.9918254017829895,3.860479165543972,0.24625490551677998,-0.24340821268327903,0.026043503607040844,-18.506232679924093,-1.5417048931121826,-0.1425873190164566,18.04366111755371
3.8000000000000003,0.33033207058906555,0.7968391180038452,8.633245468139648,-1.5912901163101196,3.801964282989502,-0.7447965741157532,3.8584943983581703,0.3488199016413228,-0.3665770738836183,0.01579139967826905,-16.249433166116205,-1.2032915353775024,-0.3320361375808716,23.861175537109375
3.9000000000000004,0.6627920269966125,-0.6164053082466125,8.977117538452148,-1.6383577585220337,3.8201286792755127,-0.5770110487937927,3.8471565153316916,0.3545583494917316,-0.44757077289974034,0.003394606514151958,-13.854879208383393,-0.09066562354564667,-0.1534920632839203,23.485702514648438
4.0,0.5751585364341736,0.4988057613372803,9.413042068481445,-1.7061814069747925,3.868952512741089,-0.5692451596260071,3.902290625116964,0.2548754102056153,-0.33914185148854914,0.014917133940048679,-12.106893736839522,0.5121533870697021,-0.05471295118331909,16.399707794189453
4.1000000000000005,0.7799253463745117,-0.12453687191009521,9.763042449951172,-1.7440725564956665,3.9282214641571045,-0.4729679524898529,3.9489633034036435,0.24558376151206052,-0.3253783832905311,0.02093452363644725,-10.424119054669088,0.6556270718574524,0.09131503105163574,15.773134231567383
4.2,0.27831268310546875,0.2320481687784195,10.215234756469727,-1.8089104890823364,4.019593715667725,-0.5473218560218811,4.0545496480054135,0.13161308815569994,-0.17138669426011055,0.04184174152339441,-9.613108970946215,0.7413350939750671,0.09453339874744415,8.34265422821045
4.3,0.7299013137817383,0.014470293186604977,10.575910568237305,-1.8522104024887085,4.0615363121032715,-0.5481316447257996,4.0975589668414525,0.08084570329003737,-0.13540651056089478,0.0432692464794469,-8.8163239067653,0.9585464596748352,-0.012249989435076714,5.0539164543151855
4.4,0.1846078485250473,0.2285882979631424,11.03366470336914,-1.9132205247879028,4.125356674194336,-0.4870615601539612,4.152331021631925,0.11808361229460962,-0.07617188430284363,0.04364490546881585,-8.362406308765443,-0.2537120282649994,-0.06277863681316376,7.553657054901123
4.5,0.7603520750999451,0.8300288915634155,11.402177810668945,-1.9429084062576294,4.134359836578369,-0.2958346903324127,4.138679129788583,0.22756204202108093,-0.14904784919941627,0.029199053887589494,-7.240026331641108,-1.1243460178375244,-0.25761669874191284,15.600401878356934
4.6000000000000005,0.9944488406181335,-0.2634415030479431,11.863323211669922,-1.9579213857650757,4.163569927215576,-0.22071027755737305,4.166136439753665,0.1653321831647485,-0.2334289500043767,0.023051885807495138,-5.306978914428694,0.4162583351135254,0.10148287564516068,11.499686241149902
4.7,0.8055950999259949,0.3790721893310547,12.239097595214844,-1.9887250661849976,4.248400688171387,-0.3358864188194275,4.261444768860649,0.04262130397660219,-0.11575315633721547,0.042149095673194976,-5.09353796580927,0.8897162675857544,0.24132932722568512,1.8711398839950562
4.800000000000001,0.9729364514350891,0.017535747960209846,12.72254753112793,-2.0143439769744873,4.406361103057861,-0.25894588232040405,4.41333563538828,0.07442922761864534,-0.1089172227858234,0.06848629425225584,-4.32937735781631,0.43014824390411377,0.24310949444770813,5.005012512207031
4.9,0.8606414794921875,0.008092658594250679,13.226995468139648,-2.048210382461548,4.604045867919922,-0.3155984878540039,4.614817773185554,0.01725339783844243,-0.04321289239931315,0.09848449007536228,-4.13559163618882,0.5041539669036865,0.25489088892936707,0.7872610092163086
5.0,0.28825274109840393,0.920765221118927,13.64828109741211,-2.074970006942749,4.77345609664917,-0.26512861251831055,4.7803632748844445,0.06559914594785893,-0.03128050949335375,0.11668008278868687,-3.9652708654604245,-0.31684625148773193,0.14538085460662842,4.261257648468018
5.1000000000000005,0.2840740978717804,-0.37868353724479675,14.193201065063477,-2.0957772731781006,4.915380001068115,-0.2758939266204834,4.923116149436191,0.0023222418099400066,-0.06814572960008233,0.11614050140741695,-3.2395937336364904,0.7479602098464966,-0.11457354575395584,0.7296422719955444
5.2,0.0597815178334713,-0.9990874528884888,14.634321212768555,-2.138930320739746,4.929118633270264,-0.5436026453971863,4.955246723204857,-0.19298769158279389,0.08032211309915988,0.09394924399167383,-4.063050530785949,1.897913932800293,-0.32860514521598816,-13.422855377197266
5.300000000000001,0.34155917167663574,-0.4586113393306732,15.186920166015625,-2.235013484954834,4.818696022033691,-0.8929727077484131,4.88956800168088,-0.3306907414568886,0.32663529338005476,0.043139474783863346,-6.629492718619817,1.9503180980682373,-0.5817521810531616,-25.922082901000977
5.4,0.7265339493751526,-0.9707006216049194,15.614006042480469,-2.336452007293701,4.699121475219727,-1.1494474411010742,4.821748758682564,-0.39205990214274133,0.4651939732309763,0.009015847150834701,-9.09663006378264,1.5169144868850708,-0.6043899059295654,-29.027069091796875
5.5,0.8915725350379944,0.6330358386039734,16.132083892822266,-2.4979255199432373,4.626014232635498,-1.3907743692398071,4.818160264812436,-0.34582175938355464,0.5792649519314764,-0.0038795408431214836,-12.627642813751716,-0.18485824763774872,-0.06936311721801758,-23.375829696655273
5.6000000000000005,0.9096490740776062,0.5349478125572205,16.568645477294922,-2.6187660694122314,4.750861644744873,-1.2174512147903442,4.904068106945318,-0.05467934110995554,0.39878315583398183,0.019855358825977533,-13.73445481481707,-2.6859099864959717,0.220387801527977,-3.365954875946045
5.7,0.6575027108192444,0.5275887250900269,17.12213706970215,-2.731292963027954,4.927032470703125,-0.9161330461502075,5.007749993271647,0.19336165726226529,0.038665961241037744,0.04325558442064311,-12.744525954225997,-3.341006278991699,0.16137216985225677,16.107765197753906
5.800000000000001,0.8797423243522644,0.7076690196990967,17.57928466796875,-2.780689239501953,5.056272506713867,-0.498727023601532,5.063693976632059,0.41668167375250476,-0.3362427555950146,0.0473332131174515,-10.337327306873016,-3.894721031188965,-0.1645233929157257,31.247697830200195
5.9,0.2704799771308899,0.9046438336372375,18.045278549194336,-2.7850635051727295,5.106451511383057,0.012590473517775536,5.07051992337745,0.604841520368801,-0.6640621166562314,0.028775579718123098,-6.661167508698805,-3.4633641242980957,-0.6713373064994812,42.99079895019531
6.0,0.9926460981369019,0.38733431696891785,18.62904167175293,-2.726496458053589,5.169083595275879,0.502872884273529,5.159084607657809,0.5967850230326275,-0.9272763638925383,0.029800110617350627,-1.041931309562614,-0.4799986779689789,-0.7099488973617554,47.16301345825195
6.1000000000000005,0.6131088733673096,0.2268684357404709,19.233991622924805,-2.6675949096679688,5.268618106842041,0.4379456341266632,5.280219429136639,0.26346900076168667,-0.6776428380283143,0.042545252603683685,1.8951592024547752,4.153899669647217,0.056913577020168304,15.347684860229492
6.2,0.685862123966217,0.8127001523971558,19.68133544921875,-2.6227822303771973,5.179117202758789,0.5897703170776367,5.204202044408327,0.29557589176735366,-0.510070939446349,0.00709656932935418,3.2458966382345222,0.9537390470504761,-0.3754561245441437,14.3951416015625
6.300000000000001,0.30931228399276733,-0.19872677326202393,20.257600784301758,-2.5388906002044678,5.129397869110107,0.655967116355896,5.168784556989076,0.1571036626015216,-0.4202269785839671,-0.004910904463157396,5.546696124165402,2.5087153911590576,-0.11025398224592209,18.307296752929688
6.4,0.3158378601074219,0.4438561201095581,20.700727462768555,-2.493602752685547,5.093387126922607,0.5582993030548096,5.123646377516624,0.05038188814637734,-0.2013244545065126,-0.01562746892321125,5.691982160965566,1.6416611671447754,-0.4391704499721527,6.452620506286621
6.5,0.03406086191534996,-0.19283133745193481,21.25999641418457,-2.428283452987671,5.0112996101379395,0.5066220164299011,5.036789383917108,-0.023288455511085826,-0.09301756061627135,-0.03380942978319522,6.037672003349549,1.6898852586746216,-0.2687058448791504,-6.56063985824585
6.6000000000000005,0.40453940629959106,-0.21314865350723267,21.814529418945312,-2.394709825515747,4.9767231941223145,0.27227920293807983,4.981574410686764,-0.16070502810562892,0.1162505796282483,-0.036801056414722096,4.97927548341452,1.377870798110962,0.09057348966598511,-12.646101951599121
6.7,0.5685373544692993,-0.5091400146484375,22.254119873046875,-2.3828132152557373,4.952869415283203,0.10273764282464981,4.949054613295089,-0.21983835589710973,0.21991549648507885,-0.032436568470670966,3.7317412663509653,1.3435944318771362,-0.05853379890322685,-17.15825080871582
6.800000000000001,0.8918492794036865,-0.24370835721492767,22.799840927124023,-2.3941516876220703,4.949684143066406,-0.07670646905899048,4.945542378586814,-0.21648921479003896,0.33190546188764947,-0.0230450572897515,1.6186448468191816,0.2639916241168976,0.11560498923063278,-16.720199584960938
6.9,0.957697868347168,0.8608076572418213,23.245075225830078,-2.4052679538726807,5.014970302581787,-0.058410849422216415,5.014297655620893,-0.10078682424952105,0.30057895882043417,0.002151509446472747,0.48417293707883735,-1.1538275480270386,0.28480789065361023,-7.7934722900390625
7.0,0.34768688678741455,-0.2624265253543854,23.804256439208984,-2.398317813873291,5.1236443519592285,-0.04670272395014763,5.122933300637836,-0.09729844296799807,0.1272585094080534,0.036268301378561636,0.5658274790382031,0.10349319130182266,0.14453859627246857,-4.096851348876953
7.1000000000000005,0.6196566820144653,-0.20618605613708496,24.37456226348877,-2.4239892959594727,5.168162822723389,-0.24707674980163574,5.171304646156406,-0.16900337012585584,0.2148157176477994,0.03725185489723715,-0.8652650913621446,0.577852725982666,-0.5010284185409546,-16.837013244628906
7.2,0.10778987407684326,-0.4359734058380127,24.82659912109375,-2.4571104049682617,5.088784217834473,-0.4134374260902405,5.100576892072905,-0.22532352079897366,0.2699477997409621,0.0057100373230936675,-2.1153256701658103,0.9221986532211304,-0.7729341983795166,-20.568151473999023
7.300000000000001,0.18593983352184296,-0.15772093832492828,25.380186080932617,-2.5227415561676025,4.981711387634277,-0.5270534157752991,5.006511666639059,-0.17342025421625207,0.3356513775786426,-0.023837360917656602,-4.055421629197583,-0.7021291851997375,-0.3565158247947693,-7.914473533630371
7.4,0.8903008103370667,-0.06391756236553192,25.81967544555664,-2.5698671340942383,4.943183422088623,-0.5006163120269775,4.967862969727661,-0.07756642500432803,0.24793500651837136,-0.028044752862399217,-4.888337148472938,-1.0223910808563232,0.31980931758880615,-5.266697406768799
7.5,0.04604912921786308,0.5355349183082581,26.373942375183105,-2.6187899112701416,4.961784839630127,-0.36216312646865845,4.9745418618262525,0.06636407081481976,0.0978508965056342,-0.014862490738029508,-4.938966894747173,-1.8378454446792603,0.05273096263408661,5.377206802368164
7.6000000000000005,0.8609815239906311,0.7668032646179199,26.81307601928711,-2.6312923431396484,4.90619421005249,-0.0911022275686264,4.901627807717476,0.23040416062064922,-0.10427856798702667,-0.026330378020533677,-3.755036572600268,-2.4308478832244873,-0.24456053972244263,17.871000289916992
7.7,0.41848865151405334,-0.40937578678131104,27.349114418029785,-2.607978105545044,4.8198065757751465,0.20057286322116852,4.8151050940663325,0.2924514223636799,-0.34692379429792364,-0.04231984827022248,-1.0927124786885658,-1.1637428998947144,-0.08919616788625717,22.158987045288086
7.800000000000001,0.9720209836959839,-0.2399548590183258,27.88899517059326,-2.599593162536621,4.795521259307861,-0.04251249134540558,4.795650395714128,-0.02384832239337291,-0.22503648743746985,-0.031801360399927474,-0.22299189248027793,2.2212750911712646,0.10099244862794876,-2.0470128059387207
7.9,0.558205783367157,0.9605421423912048,28.3131046295166,-2.61509108543396,4.823139667510986,-0.11896370351314545,4.824371854773807,-0.04759014538636902,-0.046905515477863244,-0.014678076156956724,-0.8477479472182465,1.1492098569869995,0.26651135087013245,-4.976013660430908
8.0,0.8519073128700256,0.7828308343887329,28.847376823425293,-2.604783296585083,4.866603851318359,0.1979706585407257,4.866446817236926,0.20179396005413328,-0.12097166163733232,0.004644528724495355,-0.04501343653016669,-1.4707303047180176,0.11248831450939178,14.644166946411133
8.1,0.9196821451187134,0.4214358627796173,29.278414726257324,-2.5650298595428467,4.913780212402344,0.4735863506793976,4.92637877107959,0.3167210305663304,-0.2799377319948777,0.01909720768904706,1.826588287199496,-1.7568773031234741,0.10380183160305023,23.867645263671875
8.200000000000001,0.32682764530181885,-0.6227295994758606,29.832545280456543,-2.4978418350219727,5.066595554351807,0.5066893100738525,5.089617659840263,0.15138244601912937,-0.33755499213911966,0.05921772783354217,4.007258263723386,1.0149154663085938,0.2029380053281784,10.978219985961914
8.3,0.7458176016807556,0.1461142599582672,30.396257400512695,-2.451582431793213,5.127960681915283,0.507036566734314,5.151540477533917,0.12123342610186927,-0.17822262761116978,0.05451173593446241,4.298753630921271,0.14079292118549347,-0.2083655595779419,3.972055673599243
8.4,0.08375627547502518,0.7304618954658508,30.844027519226074,-2.3977668285369873,5.088871002197266,0.6615549325942993,5.12789339279383,0.1974141787852039,-0.20492549896744766,0.029731809847605907,5.202240798053824,-0.8271281719207764,-0.5617316365242004,9.07503604888916
8.5,0.09213154762983322,0.6894880533218384,31.38996982574463,-2.2931020259857178,4.930897235870361,1.0439919233322144,5.026501459009971,0.37141589797354835,-0.38735953792350347,-0.01105124516783127,7.728388480955068,-2.01821231842041,-0.3233265280723572,31.140552520751953
8.6,0.7996335625648499,0.9579537510871887,31.90718364715576,-2.1355819702148438,4.683093547821045,1.5402559041976929,4.8981484892589355,0.558475429387328,-0.6217041287559888,-0.04361075582199254,11.70124474600945,-2.1367905139923096,-0.6832684874534607,41.514366149902344
8.700000000000001,0.27585291862487793,-0.9471979737281799,32.30330038070679,-1.9694446325302124,4.519164562225342,1.8627244234085083,4.85400128489623,0.5755537718247212,-0.7792357283543722,-0.05386286871613094,15.63847895355866,-1.0227609872817993,-0.49020904302597046,45.232975006103516
8.8,0.5170806050300598,0.8667508959770203,32.787649154663086,-1.7496418952941895,4.419710636138916,2.063516139984131,4.854206294276524,0.4781445595012537,-0.7464599030218239,-0.041472915711414544,19.401823985869175,0.1816098690032959,-0.4914734363555908,33.99818801879883
8.9,0.9467753767967224,-0.29212504625320435,33.25319242477417,-1.4958525896072388,4.2901763916015625,2.2996816635131836,4.849679982417043,0.4180350376434945,-0.7293701789745275,-0.037531878931619224,23.266203421055664,1.058430552482605,-0.10622008144855499,30.218059539794922
9.0,0.3917287588119507,0.9234679937362671,33.63206672668457,-1.2934757471084595,4.354255676269531,2.3292160034179688,4.930777102579136,0.2687505341112899,-0.5607910026886431,-0.007076080207968539,25.023799282078578,1.6851171255111694,0.12511631846427917,17.83135223388672
9.1,0.8190990090370178,0.8773690462112427,34.09254837036133,-1.0140690803527832,4.189975738525391,2.672337055206299,4.9518065330927294,0.4205877849869486,-0.5277711818121051,0.0016665735738715362,27.674608797011633,-0.5289950370788574,-0.29955896735191345,29.838024139404297
9.200000000000001,0.808569610118866,0.020269906148314476,34.53644371032715,-0.6927192807197571,4.129172325134277,2.9196386337280273,5.044246075690954,0.36046549084272383,-0.5815430098631098,0.0225123044808279,31.1757639594553,0.6143783926963806,0.37423810362815857,24.113142013549805
9.3,0.13816949725151062,0.045795734971761703,34.913883686065674,-0.43845367431640625,4.325067520141602,2.835017442703247,5.170510368407964,0.09672375303527447,-0.36776721017818825,0.05183430407857689,32.17254916506362,2.8397998809814453,0.3813105821609497,3.2571303844451904
9.4,0.0901077464222908,0.5665847063064575,35.38649129867554,-0.12277202308177948,4.2467875480651855,2.9368975162506104,5.160984944735836,0.15749888752163077,-0.2151183727713263,0.030749507145352854,32.9181193812908,0.15323032438755035,-0.7803736925125122,14.842323303222656
9.5,0.7085950374603271,0.16298243403434753,35.84084177017212,0.2113068699836731,4.074591636657715,2.970301389694214,5.03991984941273,0.15554826465099358,-0.23532110252868615,-0.014739545582967488,34.32357957433462,0.3233642578125,-0.33486804366111755,6.12307071685791
9.600000000000001,0.35704389214515686,0.45223337411880493,36.193416595458984,0.47924894094467163,3.9443166255950928,3.051194906234741,4.98290016445152,0.19526891684985337,-0.2353210997522366,-0.026391850477034566,35.48022140308297,-0.46311071515083313,0.2518363893032074,14.172452926635742
9.700000000000001,0.4367063343524933,-0.1087159663438797,36.62458634376526,0.8351468443870544,3.891569137573242,3.1098835468292236,4.980039715618192,0.1220264652325076,-0.2718505311069079,-0.017942900984294,37.22588158476602,0.8920646905899048,0.06336920708417892,10.103662490844727
9.8,0.6127434968948364,0.2212717980146408,36.97255063056946,1.101086974143982,3.930373191833496,3.040580987930298,4.969082986228256,0.03435763704756756,-0.14416506070981353,-0.01346230226035752,37.32978716245386,0.9436942934989929,0.052907731384038925,1.4884275197982788
9.9,0.21779765188694,0.47215092182159424,37.395275592803955,1.4535588026046753,3.7488198280334473,3.2513186931610107,4.957493311946315,0.21905115740962655,-0.186462404314988,-0.01016332574047513,38.40479535432302,-1.1053558588027954,-0.07256881147623062,15.626850128173828
10.0,0.1834387630224228,0.5911282896995544,37.783995389938354,1.8380317687988281,3.401731252670288,3.5002129077911377,4.864529023244704,0.39952884410438116,-0.38046254285687703,-0.030182606414081267,41.122256003859455,-1.9744763374328613,-0.46133795380592346,29.66865348815918
10.100000000000001,0.28678378462791443,-0.005310175474733114,38.07000505924225,2.1621346473693848,3.2256147861480713,3.5663561820983887,4.796533334287515,0.3416945116286678,-0.4931029123341468,-0.0452500036130911,43.797279881432495,-0.2972778081893921,-0.27060824632644653,26.23766326904297
10.200000000000001,0.69196617603302,-0.10413498431444168,38.439401268959045,2.549288034439087,3.347303628921509,3.3351640701293945,4.725226003522353,-0.00041774315359610625,-0.295562689580569,-0.04772935644031839,44.9009803389295,2.563370943069458,-0.03097669966518879,-0.711891233921051
10.3,0.48982399702072144,-0.8251731991767883,38.74990916252136,2.8419876098632812,3.42948055267334,3.1989777088165283,4.68856421550344,-0.11027619765974483,-0.07055663357442082,-0.04303018916736033,44.355719900399066,2.433260917663574,0.08051308989524841,-9.324453353881836
10.4,0.7742956876754761,-0.1101393774151802,39.14480119943619,3.186188220977783,3.491123914718628,3.116703748703003,4.6788210371508026,-0.10208891915754847,0.12631291940071174,-0.029444946324754594,43.00686935537143,0.6644901037216187,0.18736334145069122,-8.466039657592773
10.5,0.5521515607833862,-0.5965645909309387,39.46566092967987,3.4640438556671143,3.589435577392578,3.064119815826416,4.717185122277751,-0.14506044310262123,0.17182888643040434,-0.008879246547612157,42.247086565252374,0.7422353625297546,0.16420480608940125,-10.668113708496094
10.600000000000001,0.6616361737251282,-0.877358615398407,39.88753955066204,3.7845427989959717,3.8345186710357666,2.7924625873565674,4.731562971995985,-0.33718330674064045,0.3294085921827965,0.00022538644798074592,40.139882307238565,1.796305537223816,-0.11933735013008118,-24.904308319091797
10.700000000000001,0.17863678932189941,0.37514835596084595,40.24652361869812,4.0157599449157715,4.000375747680664,2.6261086463928223,4.771992497439985,-0.3571279177931479,0.46954226282277683,0.007294647347660379,37.563459013886586,0.7670188546180725,-0.015111993066966534,-26.43175506591797
10.8,0.7008835673332214,0.020235158503055573,40.69273918867111,4.322396278381348,3.909174680709839,2.8103277683258057,4.814312623707384,-0.044528765283780025,0.3175462124377348,0.017621901742783996,36.24249900145001,-2.213038921356201,-0.012621804140508175,-2.606948137283325
10.9,0.22490516304969788,0.9265250563621521,41.040083169937134,4.581033229827881,3.862065315246582,2.9071905612945557,4.833721265393756,0.049438723598275836,0.1357381560384091,0.019186000194094253,36.384809096447675,-2.0704586505889893,0.0108823012560606,4.722352981567383
11.0,0.08293894678354263,-0.5122407078742981,41.46499276161194,4.915529251098633,3.8328959941864014,2.892554521560669,4.8018626369170825,-0.008864458864556113,-0.024597171128909072,0.006918981373140152,37.14636743054548,-0.011019160971045494,-0.182456374168396,0.8049065470695496
11.100000000000001,0.789438009262085,0.5511137843132019,41.80991888046265,5.163773059844971,3.805819034576416,2.7904810905456543,4.719075363595063,-0.037026387173915154,0.026229942823888536,-0.01583920859694507,36.698943722476315,0.0077863652259111404,-0.2395695596933365,-3.000974655151367
11.200000000000001,0.5895190834999084,0.04687239229679108,42.221535205841064,5.483615398406982,3.668788433074951,2.846184015274048,4.643061034558353,0.05249995078064229,-0.05215451655440784,-0.030763167159511537,37.1558785791218,-0.34785714745521545,-0.018819766119122505,4.19801664352417
11.3,0.34684836864471436,-0.681120753288269,42.6355414390564,5.7956366539001465,3.7360951900482178,2.711104154586792,4.615230857479618,-0.09020608786075668,-0.00399780484566552,-0.026426001903712335,37.086303414922384,1.1819407939910889,0.011434778571128845,-6.4303131103515625
11.4,0.6451586484909058,-0.1995794028043747,42.976524353027344,6.0255279541015625,3.7930867671966553,2.569990396499634,4.579120155762714,-0.15497245132725057,0.11846576203441424,-0.02737539749249923,36.05777997029322,1.023484230041504,0.001492998213507235,-11.591410636901855
11.5,0.7742495536804199,-0.6810154914855957,43.41287589073181,6.301111698150635,3.9096310138702393,2.389115810394287,4.575239534916567,-0.24550400857913646,0.22827073772758227,-0.018181959215590713,34.4999690086145,1.2954425811767578,0.020420564338564873,-17.875715255737305
11.600000000000001,0.4073459208011627,0.24769166111946106,43.77690005302429,6.50158166885376,4.029021739959717,2.2722928524017334,4.618584219532112,-0.2549721459943839,0.33480606920995537,-0.0032648262689734526,32.58203050529375,0.4085885286331177,0.15704092383384705,-18.565664291381836
11.700000000000001,0.4387102723121643,-0.9424967765808105,44.233304500579834,6.765998363494873,4.0610456466674805,2.3226428031921387,4.676142089056281,-0.14302621610560484,0.2480422418039401,0.015531837255673066,31.518553520814947,-0.3881874978542328,0.026600154116749763,-9.32835865020752
11.8,0.5396775007247925,-0.8216277956962585,44.61001920700073,6.960373401641846,4.186461925506592,2.090524196624756,4.67052390756867,-0.28803003180122855,0.2969901273110656,0.011467882844194869,30.064354834398614,1.0183279514312744,-0.1982893943786621,-20.12181854248047
11.9,0.017091557383537292,-0.5623875260353088,45.09869956970215,7.163187026977539,4.325671672821045,1.729722261428833,4.6400177942755585,-0.4166646031703125,0.4599048453918649,-0.0032989690742935536,26.926457121196766,1.3218817710876465,-0.3837716579437256,-30.05883026123047
12.0,0.18257886171340942,0.4623536765575409,45.49282169342041,7.302709102630615,4.324386119842529,1.5985232591629028,4.598770299133856,-0.3269612505723243,0.5105820688072089,-0.01742381155274469,24.353741155594367,-0.3299419581890106,-0.31194978952407837,-23.996660232543945
12.100000000000001,0.6994670629501343,0.5815011262893677,45.96531534194946,7.494605541229248,4.14422082901001,1.799772024154663,4.51815616368159,0.003240233979795226,0.2767694141073611,-0.03161694348048106,23.433482335209344,-2.759108781814575,-0.1404034048318863,1.384803295135498
12.200000000000001,0.7948185205459595,0.9044114351272583,46.33130598068237,7.674932479858398,3.984990119934082,2.01141357421875,4.459858777606976,0.1886544627770812,0.005060336250217991,-0.03744309475413407,24.360045702494435,-3.336494207382202,0.0014753150753676891,16.706022262573242
12.3,0.44985219836235046,0.7378944754600525,46.76796293258667,7.938883304595947,3.7580742835998535,2.3739585876464844,4.427081779451576,0.399685645179944,-0.3265685350560107,-0.03292833792608016,27.121627751297538,-2.7098236083984375,-0.16198280453681946,29.37957191467285
12.4,0.6430659890174866,0.29462477564811707,47.09200429916382,8.177046775817871,3.612736463546753,2.597935676574707,4.429011432948893,0.4301072673973103,-0.5232850005467877,-0.027764729193966487,30.173410611211008,-1.1982840299606323,-0.054012198001146317,31.78963851928711
12.5,0.16902126371860504,0.749681293964386,47.421870708465576,8.420062065124512,3.6306915283203125,2.6693246364593506,4.495225066713107,0.31649105551322587,-0.4999083848191018,-0.0033536151964322957,32.29641371509031,0.32963699102401733,-0.03699926659464836,21.86807632446289
12.600000000000001,0.7303995490074158,0.22213509678840637,47.82414770126343,8.741595268249512,3.552790641784668,2.770291328430176,4.498600762844818,0.24377564533841678,-0.4559936700735424,-0.0018578055065302088,34.84357281121818,1.1757233142852783,-0.07082121819257736,16.178882598876953
12.700000000000001,0.28824618458747864,-0.4846633970737457,48.153310775756836,8.997045516967773,3.614581823348999,2.723447561264038,4.5248571490612,0.08964461628987275,-0.31066884144001683,0.005689544665757815,35.861638744159286,2.1524243354797363,0.051326923072338104,5.474029541015625
12.8,0.6878200173377991,0.6257278323173523,48.5740966796875,9.30372142791748,3.597890853881836,2.734018087387085,4.517726468876488,0.09910121603226463,-0.12112425133041008,0.004658183045600641,35.97436506920671,0.36683058738708496,-0.04532473161816597,5.68716287612915
12.9,0.7972069978713989,-0.964684247970581,48.89665126800537,9.562356948852539,3.571200132369995,2.807482957839966,4.541449491027864,0.10328341804991359,-0.13586428757863098,0.008968037822082704,36.8696815154182,0.3655739426612854,0.12207461893558502,7.297720432281494
13.0,0.8941491842269897,0.035627033561468124,49.31676483154297,9.87780475616455,3.692460775375366,2.806319236755371,4.637777144941768,0.0267841394239845,-0.03594970177086605,0.031774032571629245,36.90442488905667,0.3581187129020691,0.25589463114738464,1.2618814706802368
13.100000000000001,0.21719713509082794,0.45441311597824097,49.66048240661621,10.14441967010498,3.7321388721466064,2.9462568759918213,4.754086318510153,0.08918192906305933,-0.0420837363026422,0.055276715032565864,37.21388334249335,-0.5235921740531921,0.20912021398544312,6.1706342697143555
13.200000000000001,0.7712926268577576,0.855389416217804,49.99163818359375,10.429051399230957,3.6145668029785156,3.1816704273223877,4.809154395997382,0.24526287275330283,-0.1596984776307225,0.0576331221944838,38.43587663899879,-1.6084250211715698,-0.12222473323345184,17.0152587890625
13.3,0.4583336412906647,0.22389476001262665,50.384727478027344,10.820966720581055,3.4606313705444336,3.4400317668914795,4.87002407097931,0.3043905190719074,-0.3600157870764434,0.050536572502217415,41.252464656700425,-0.911005973815918,-0.056481584906578064,22.704938888549805
13.4,0.9705460071563721,-0.14631067216396332,50.707664489746094,11.139168739318848,3.584772825241089,3.4137423038482666,4.949309333164474,0.09257348605986593,-0.30874634233954146,0.057066231032699026,42.528523881200975,1.4424456357955933,-0.005998559761792421,7.183645725250244
13.5,0.12377829849720001,0.4675130546092987,51.1239595413208,11.524672508239746,3.65356707572937,3.485950469970703,5.049083932884693,0.08458424574511403,-0.14602661896206612,0.06543320352032109,42.69534504741924,0.44563552737236023,0.038107577711343765,4.73675537109375
13.600000000000001,0.8212994337081909,0.12151195853948593,51.44939136505127,11.850997924804688,3.599027633666992,3.581273317337036,5.075844722614908,0.11966132738372881,-0.16796868236153595,0.0526334262851113,43.50784978500512,0.12086652964353561,-0.3170735538005829,5.448275089263916
13.700000000000001,0.4641973376274109,-0.5359202027320862,51.85941791534424,12.249564170837402,3.659515380859375,3.408202648162842,5.000317352484547,-0.06873491203506576,-0.06240844349748472,0.017498945931509226,43.75108874266968,1.7381869554519653,0.08099152147769928,-5.870500087738037
13.8,0.952742874622345,0.7819416522979736,52.20025634765625,12.546087265014648,3.7270824909210205,3.35735821723938,5.0157907789813265,-0.06957696803343971,0.10460832512334273,0.01696618540964626,42.807278427626386,0.33503785729408264,0.101531483232975,-3.8200063705444336
13.9,0.045572035014629364,-0.7178974151611328,52.630778312683105,12.94156551361084,3.848494529724121,3.3827550411224365,5.12257598603118,-0.11470431941483472,0.08736571076558576,0.04404105584888462,42.59761743579085,1.2013386487960815,1.1009573936462402,-7.494082450866699
14.0,0.44931524991989136,0.1691538542509079,52.98818778991699,13.238970756530762,3.88948655128479,3.3481881618499756,5.13157159327459,-0.07377386308751044,0.17460084862183506,0.038781811887515914,41.54652322435915,-0.4198053777217865,1.31399405002594,-7.47169303894043
14.100000000000001,0.6127240657806396,-0.3536313474178314,53.4192419052124,13.620227813720703,3.8371951580047607,3.2426702976226807,5.022515508022563,-0.11539199007035306,0.09608335406835786,0.0027798878042185476,41.51603951744078,0.8601104617118835,0.40767812728881836,-7.81675910949707
14.200000000000001,0.18076995015144348,-0.864264190196991,53.78700065612793,13.90185546875,4.02068567276001,2.9957375526428223,5.005452691775157,-0.2929165646610934,0.25331286819241405,-0.0023495804473014745,40.03820524111147,2.3092668056488037,-0.2301115095615387,-22.732921600341797
14.3,0.8701022267341614,0.2341655045747757,54.168012619018555,14.157031059265137,4.111401557922363,2.826389789581299,4.981210064450807,-0.2822203163307644,0.3979353422004251,-0.011747912615287397,37.74938088834955,0.3153672218322754,-0.01887728087604046,-20.78984260559082
14.4,0.35869279503822327,0.5901749134063721,54.63768672943115,14.50577163696289,3.910616636276245,3.059514045715332,4.964735099974304,0.07038507606782263,0.18772564178858261,-0.007663469713934684,37.22601293821531,-2.6472883224487305,-0.017096035182476044,5.814296245574951
14.5,0.7977481484413147,-0.027130112051963806,54.99372386932373,14.805705070495605,3.8099958896636963,3.137308359146118,4.934439124393556,0.10041387989977224,-0.03356933370254363,-0.012150904846181525,38.3036694832021,-1.343345046043396,0.010038862004876137,9.258407592773438
14.600000000000001,0.7798924446105957,0.6667900085449219,55.35148048400879,15.09680461883545,3.815805673599243,3.151628017425537,4.9484666052586075,0.07622568815135455,-0.07165526763429299,-0.003968339142206867,38.6721674218543,-0.7494499087333679,0.11983229964971542,6.07678747177124
14.700000000000001,0.4145814776420593,-0.9584527015686035,55.78350353240967,15.482605934143066,3.752676010131836,3.3231985569000244,5.010982117961904,0.1276091652955733,-0.19232174810356148,0.014295594430540095,40.06786185065993,-0.2831875681877136,0.18360517919063568,10.636959075927734
14.8,0.7086232304573059,-0.4586828649044037,56.14816665649414,15.778017044067383,3.9670896530151367,3.1219003200531006,5.046446252263555,-0.13206871856167268,-0.027404790531027737,0.023448041247110675,39.700093510863525,2.343271255493164,-0.009903665632009506,-9.062402725219727
14.9,0.20807790756225586,-0.6080847382545471,56.62838172912598,16.10776710510254,4.214061260223389,2.741420030593872,5.013539627509923,-0.371640272904461,0.2860998765278004,0.008428450978036389,37.285085647815215,3.319995641708374,0.0858524963259697,-26.15607452392578
15.0,0.5785139203071594,-0.9783811569213867,57.03826332092285,16.333784103393555,4.384293556213379,2.3608579635620117,4.954233085514001,-0.501253274868853,0.5280910828716565,-0.010682422416194678,34.07895335080101,2.5195653438568115,-0.539390504360199,-39.6314697265625
15.100000000000001,0.7996660470962524,-0.11302492022514343,57.459829330444336,16.520994186401367,4.522136211395264,2.0416362285614014,4.935148541916328,-0.5121555168187475,0.7077813663754053,-0.020114885910303273,30.222819027958295,1.0524141788482666,-0.36155253648757935,-39.24604797363281
15.200000000000001,0.30256518721580505,0.4526994228363037,57.99224281311035,16.76407241821289,4.535699367523193,2.2250654697418213,5.050319938645766,-0.13324269024872426,0.5266098760358193,0.017102804046387705,27.642340646368414,-3.0499038696289062,0.0492464080452919,-7.461163520812988
15.3,0.9837754964828491,-0.2897622287273407,58.40408515930176,16.9842586517334,4.4593305587768555,2.2854433059692383,5.010572187366806,-0.05519503987604146,0.22025992517278384,0.0007649822943130427,27.766638468134477,-1.650957703590393,-0.6066043376922607,-6.253829479217529
15.4,0.6367366909980774,-0.35222893953323364,58.92795944213867,17.22395896911621,4.623717308044434,2.0027832984924316,5.031772893310978,-0.26676625643201946,0.26342681866500084,0.002595465256038954,26.454831016391243,1.0177743434906006,0.3214690685272217,-19.516271591186523
15.5,0.5111772418022156,-0.10966236889362335,59.36060333251953,17.399208068847656,4.728359222412109,2.02126407623291,5.139988092683748,-0.15300917981813722,0.30447002443438353,0.03926675394495447,24.850685755506206,-0.9509831666946411,1.1432911157608032,-11.08140754699707
15.600000000000001,0.7559722065925598,-0.5007125735282898,59.79623222351074,17.580366134643555,4.808790683746338,1.937387228012085,5.181146969088254,-0.18344807455385537,0.24712497926931515,0.0444850192346373,23.97155721483368,0.19299453496932983,0.7013739347457886,-13.475522994995117
15.700000000000001,0.5362299084663391,-0.9805256128311157,60.35009956359863,17.765649795532227,4.711202144622803,1.4502395391464233,4.914696268443908,-0.37997494304973767,0.4000121576035301,-0.04995600128012259,21.530799030971284,1.91508948802948,-2.8598737716674805,-26.11343765258789
15.8,0.8039776086807251,-0.28240349888801575,60.81001853942871,17.877471923828125,4.944484710693359,1.2584277391433716,5.087946179514817,-0.37996460793931375,0.5449593560796183,-0.0020763880292136777,18.55014823513737,0.29943710565567017,0.9178267121315002,-29.9407958984375
15.9,0.43762996792793274,-0.46116402745246887,61.39561462402344,18.01311492919922,5.108588218688965,1.072299599647522,5.2059444855416555,-0.3816307547752875,0.513271265651536,0.035025219264356484,16.047032454569177,0.6746546626091003,-0.1982409656047821,-23.54109001159668
16.0,0.17144398391246796,-0.548529326915741,61.874149322509766,18.08897590637207,5.154297828674316,0.7682403326034546,5.192363993324342,-0.44309759212202227,0.5837275368164908,0.014493661699159529,13.355038365870774,1.0083009004592896,-0.836685299873352,-27.20574378967285
16.1,0.4423927962779999,0.7711482644081116,62.345558166503906,18.14103126525879,5.08151388168335,0.6166670918464661,5.107632370497959,-0.33786565340140695,0.5953842252995286,-0.017642376939647764,10.703849288695665,-0.9113304018974304,-0.7883203029632568,-18.426918029785156
16.2,0.6607987284660339,-0.23428654670715332,62.90993309020996,18.21491050720215,4.945014953613281,0.6043634414672852,4.977681433027049,-0.20276985017236338,0.3866044948046049,-0.0445191711867444,9.300645225856204,-0.9094634652137756,0.3355230689048767,-12.272435188293457
16.3,0.14856559038162231,0.3939513862133026,63.363285064697266,18.267955780029297,5.015904903411865,0.6574108004570007,5.058173769823699,-0.07980648404871027,0.274595164324546,-0.006686756880165474,8.370845748748888,-2.1727652549743652,0.3073709309101105,-4.755459308624268
16.400000000000002,0.7728394865989685,0.6518548727035522,63.92256736755371,18.376596450805664,4.891051769256592,1.0421360731124878,4.99636858048486,0.21150889431430242,-0.084442132492356,-0.022034188003415937,9.604111904253395,-3.1997509002685547,-0.4705360233783722,22.153581619262695
16.5,0.1290881335735321,-0.7805184721946716,64.36274337768555,18.492769241333008,4.8963398933410645,1.225327491760254,5.042447247061301,0.22203056949566158,-0.2930602860085041,-0.008209883801401432,11.528690437469972,-0.8330757021903992,0.44679969549179077,18.105165481567383
16.6,0.5950700640678406,0.7685698866844177,64.91713523864746,18.62622833251953,4.862244129180908,1.2517484426498413,5.017606909935008,0.17864219211307697,-0.24639889114895142,-0.007841059103601602,12.397832998781942,-0.429892361164093,-0.06679020822048187,8.638528823852539
16.7,0.7134795188903809,0.9520070552825928,65.35100936889648,18.7596378326416,4.749189853668213,1.5216180086135864,4.977207379306419,0.31230167098496575,-0.338470555409105,-0.015163024554992372,14.174818464287606,-1.0795270204544067,-0.15370197594165802,18.427473068237305
16.8,0.9612040519714355,0.5625131726264954,65.8854808807373,18.973377227783203,4.620547771453857,1.9166134595870972,4.983886150193969,0.4286580264760853,-0.5193786993593041,-0.011993809907120354,17.612939244279747,-1.361709475517273,-0.14221401512622833,31.963855743408203
16.900000000000002,0.13422909379005432,-0.2069871574640274,66.31739044189453,19.17549705505371,4.661563396453857,2.0956382751464844,5.099931542348939,0.33551653129425363,-0.5876769145726076,0.02363927777238079,20.44265646034355,0.6381538510322571,0.24551473557949066,24.21976661682129
17.0,0.6909375190734863,0.508141279220581,66.76285362243652,19.368600845336914,4.715712070465088,2.0758917331695557,5.148774298589128,0.19336504740996885,-0.4044189599622489,0.02670603823649815,21.608689655167602,1.260114073753357,-0.7963778972625732,12.510538101196289
17.1,0.6997129917144775,0.7467993497848511,67.29843711853027,19.640512466430664,4.434067726135254,2.3912572860717773,5.02355048350676,0.3781647098879246,-0.4469908996120076,-0.02105065614662874,24.03261682092812,-1.213795781135559,-0.3969380855560303,26.568687438964844
17.2,0.8670257329940796,0.4883876144886017,67.70184516906738,19.89116096496582,4.308531284332275,2.6762754917144775,5.053582026141057,0.43266735569666404,-0.5646361913308399,-0.0057373548349365895,26.95328250868808,-0.871231734752655,0.5266748070716858,29.90219497680664
17.3,0.39708590507507324,-0.6609350442886353,68.11089324951172,20.161001205444336,4.41131591796875,2.7968530654907227,5.21639678597942,0.2670201664536025,-0.5375366193071414,0.04464211330051488,29.445092747372655,1.6534843444824219,2.2679150104522705,19.187227249145508
17.400000000000002,0.4268471598625183,-0.604394793510437,68.6512680053711,20.4669246673584,4.628284931182861,2.4722838401794434,5.245806086010796,-0.12135608183712865,-0.12933351590481568,0.03251169886512428,29.434966795482445,4.0162763595581055,-1.1508431434631348,-9.285565376281738
17.5,0.4903118908405304,-0.4855925440788269,69.0982608795166,20.672847747802734,4.723006248474121,2.110672950744629,5.163516480975911,-0.31595233631162767,0.21987106828823536,-0.0014343404798824954,27.58100511091348,3.457188129425049,-0.9209105372428894,-20.836393356323242
17.6,0.1490648239850998,0.8350203633308411,69.56087112426758,20.85501480102539,4.713802814483643,1.932178258895874,5.087967866211789,-0.256579013911997,0.41476370172737975,-0.0211735814110114,25.17552443908502,0.3800165355205536,-0.5087426900863647,-17.625896453857422
17.7,0.5221855640411377,0.5660006403923035,70.0037956237793,21.05750274658203,4.536240577697754,2.1815712451934814,5.033120588717096,0.06654935040074927,0.21000735497974,-0.03231361994315343,24.926319854531588,-2.5296976566314697,0.6359512209892273,6.033578395843506
17.8,0.8493550419807434,0.17692729830741882,70.42856788635254,21.285730361938477,4.493275165557861,2.3696374893188477,5.077783582479139,0.14428247887277346,-0.059844960946198865,-0.00018441479770847462,26.17841802239489,-2.0430564880371094,0.7914989590644836,11.133867263793945
17.900000000000002,0.5237654447555542,0.5385636687278748,70.96028709411621,21.586008071899414,4.374913692474365,2.5540781021118164,5.060805691920174,0.22678297315970175,-0.22106937141673128,-0.008059623231138565,27.710615821692272,-1.5561249256134033,-1.7746803760528564,15.404609680175781
18.0,0.15635830163955688,-0.3078513443470001,71.3770694732666,21.85146713256836,4.32869815826416,2.6754162311553955,5.085283244156414,0.18807998827970707,-0.3299560418517472,-0.002110529277830547,29.600626566441253,0.23247510194778442,-0.6172212958335876,15.85245132446289
18.1,0.8395901322364807,0.6129369139671326,71.79311752319336,22.097379684448242,4.306634426116943,2.5869548320770264,5.023132341043673,0.0870452054015356,-0.19860845168719363,-0.019438715029054764,30.00007054348916,0.5693086981773376,0.5545647740364075,5.20453405380249
18.2,0.08631128072738647,0.8263346552848816,72.19597244262695,22.365934371948242,4.1584248542785645,2.8775289058685303,5.048648081219024,0.2895210265146666,-0.2790221515055863,-0.0010108767956145523,31.400189102977407,-1.7101304531097412,0.42800238728523254,19.293869018554688
18.3,0.2635273337364197,0.13640788197517395,72.68208694458008,22.730131149291992,4.067930221557617,2.923703908920288,5.006992074075556,0.16165149130810708,-0.3520812917807305,-0.011747923025069747,33.85640768104433,1.2528578042984009,-0.32537710666656494,12.182835578918457
18.400000000000002,0.21703898906707764,-0.8480822443962097,73.07316207885742,23.006921768188477,4.091111183166504,2.8057565689086914,4.960791662258384,0.002592425891000172,-0.21188352776894392,-0.020996004171886854,34.413078518725825,2.0108144283294678,-0.02743929624557495,-0.7350127696990967
18.5,0.871401309967041,0.43409499526023865,73.46902847290039,23.26218032836914,4.060246467590332,2.6879074573516846,4.869264769535243,-0.02661730695366682,-0.028961179605822104,-0.03488176947287812,33.8179955892992,0.9244529008865356,-0.12238708138465881,-3.6113569736480713
18.6,0.061337344348430634,0.5320093035697937,73.8480224609375,23.530399322509766,3.882581949234009,2.8356399536132812,4.805446592041925,0.15159020442740134,-0.07189940412575217,-0.04068060897441891,34.33566302892621,-1.0769792795181274,-0.04893692210316658,10.651607513427734
18.7,0.7249400019645691,0.820823073387146,74.20304870605469,23.81987953186035,3.613367795944214,3.0238707065582275,4.701438083605,0.31096756225729516,-0.23547363550164252,-0.05447076873891452,36.14029358046422,-1.973524808883667,-0.3033955693244934,23.726520538330078
18.8,0.9559633731842041,0.8478397727012634,74.59673690795898,24.21293067932129,3.157740831375122,3.321364641189575,4.554169739463299,0.5121798727349494,-0.5063474757703779,-0.07540528651308012,40.02989791000899,-2.3546018600463867,-0.45050254464149475,38.667640686035156
18.900000000000002,0.3429645299911499,0.11413560807704926,74.87331771850586,24.55376434326172,2.939168691635132,3.550348997116089,4.580297250182414,0.5143614479943128,-0.6767578520726952,-0.057557964799900885,43.97282773450556,-0.7743136882781982,-0.005476050544530153,38.58244323730469
19.0,0.8655186295509338,-0.48821642994880676,75.15474700927734,24.8946475982666,3.0634989738464355,3.545095205307007,4.679793484130443,0.22860210703127448,-0.5675353139670746,-0.015716260253069495,46.37141334656534,2.153285026550293,0.19908465445041656,15.948452949523926
19.1,0.7704631090164185,-0.05472611263394356,75.53231430053711,25.29772186279297,3.2770984172821045,3.461326837539673,4.766565279787635,-0.0035981034299670256,-0.2234191414290139,0.016652003385951637,46.60932586772462,2.520982503890991,0.28687408566474915,-2.212303400039673
19.200000000000003,0.3132701516151428,-0.9096139073371887,75.84656143188477,25.617855072021484,3.4222781658172607,3.4522664546966553,4.860419488419182,-0.08033626235013225,-0.03363036276080354,0.03964924234661516,46.19687203424143,2.0259361267089844,0.18954038619995117,-7.215839385986328
19.3,0.5859813094139099,0.9744990468025208,76.17671966552734,25.931119918823242,3.5291569232940674,3.4244911670684814,4.9166929775463775,-0.09065598221092541,0.12154697659099442,0.04598083935857095,45.19397677742842,0.7396590113639832,0.0411667600274086,-8.138504981994629
19.400000000000002,0.11679437011480331,0.303088515996933,76.5742301940918,26.351274490356445,3.32405686378479,3.6658055782318115,4.945473467153103,0.17255942963196302,-0.010803223844930758,0.039826831386295364,45.80070286088355,-1.9085853099822998,-0.16013503074645996,12.950507164001465
19.5,0.7299425601959229,0.2650099992752075,76.87300491333008,26.704437255859375,3.184497833251953,3.7476162910461426,4.913751853872157,0.2017350576096555,-0.16223140189993784,0.01999879687759846,47.29315814520456,-1.2139190435409546,-0.2540496289730072,15.355668067932129
19.6,0.8290437459945679,0.0836540013551712,77.2396469116211,27.14851951599121,3.168401002883911,3.7510218620300293,4.909201452140744,0.09311834836494715,-0.20123287972652715,0.010477508875991873,48.72633365422193,0.39976412057876587,0.017902350053191185,7.029912948608398
19.700000000000003,0.37081238627433777,-0.5291329622268677,77.54026794433594,27.500558853149414,3.2625253200531006,3.7355740070343018,4.959674280202492,-0.014685377618222084,-0.1261291828882787,0.021159924375673243,49.036774705627415,1.327118158340454,0.11092138290405273,-1.1822127103805542
19.8,0.6888731718063354,-0.2597202956676483,77.85905456542969,27.838645935058594,3.4451098442077637,3.596196174621582,4.977263670165618,-0.1680926014720221,0.05050573300524967,0.022348378207162158,48.16347839945325,1.9927586317062378,-0.019745048135519028,-13.2125883102417
19.900000000000002,0.8339486718177795,0.1617383062839508,78.2706069946289,28.260719299316406,3.4242067337036133,3.7011055946350098,5.042145754992093,0.011855935009697838,0.12061501629588209,0.03318788601227529,47.090745156815785,-1.1295225620269775,0.08301998674869537,0.4179912805557251
