t,throttle,steering,x,y,v_x,v_y,U,V,roll,pitch,yaw,p,q,r
0.0,0.0,0.0,0.0,-5.099307600175962e-06,0.0,0.0,0.0,0.0,0.003613611551014079,-3.415094262713877e-05,2.816076708237924e-17,0.0,0.0,0.0
0.1,0.8349816203117371,0.19310805201530457,0.0,-5.094241259939736e-06,-1.2086798051313963e-07,-9.084772045753198e-08,-1.2086798051313963e-07,-9.084772045753198e-08,0.003613611551014079,-3.415094262713877e-05,2.816076708237924e-17,0.0,0.0,0.0
0.2,0.28886324167251587,-0.9140968322753906,0.0,-5.093943400424905e-06,-2.656712183579657e-07,-1.1542444156020792e-07,-2.656712183579657e-07,-1.1542444156020792e-07,0.003613611551014079,-3.415094262713877e-05,2.816076708237924e-17,0.0,0.0,0.0
0.30000000000000004,0.9736543893814087,0.19294340908527374,0.0,-5.086492819827981e-06,2.6505439620905236e-08,2.817790978326684e-08,2.6505439620905236e-08,2.817790978326684e-08,0.003613611551014079,-3.415094262713877e-05,2.816076708237924e-17,0.0,0.0,0.0
0.4,0.7902631759643555,0.8206787705421448,0.0,-5.0754656513163354e-06,1.783027947510618e-08,6.475111291592839e-08,1.783027947510618e-08,6.475111291592839e-08,0.003613611551014079,-3.415094262713877e-05,2.816076708237924e-17,0.0,0.0,0.0
0.5,0.6881544589996338,-0.6200170516967773,0.0,-5.063544904260198e-06,2.8963711429241812e-08,-3.5713364354705845e-07,2.8963711429241812e-08,-3.5713364354705845e-07,0.003613611551014079,-3.415094262713877e-05,2.816076708237924e-17,0.0,0.0,0.0
0.6000000000000001,0.9814789891242981,-0.4305199086666107,0.0,-5.049537776358193e-06,1.5859154700592626e-07,9.850183602111429e-08,1.5859154700592626e-07,9.850183602111429e-08,0.003613611551014079,-3.415094262713877e-05,2.816076708237924e-17,0.0,0.0,0.0
0.7000000000000001,0.6292731761932373,0.16207295656204224,0.002529144287109375,5.382300878409296e-05,0.10142756998538971,0.0020470484159886837,0.10142767284245237,0.002041945670918023,0.0030093587676409583,0.01904256545367274,0.00288250628717047,-0.020953647792339325,0.9748727679252625,0.13426099717617035
0.8,0.5999122858047485,0.07049620896577835,0.032238006591796875,0.0014601863222196698,0.45387187600135803,0.014112124219536781,0.4538892811904957,0.013540764208673277,-0.004089354840273785,0.10654412033253335,0.07212582874392665,-0.05108429118990898,0.9016343355178833,0.8062173128128052
0.9,0.9957771301269531,0.0038921693339943886,0.10987472534179688,0.002595153171569109,0.843596339225769,0.004137152805924416,0.8436031985448927,0.00235435623570778,-0.00018310550552279282,0.17658087203253653,0.12108429252198054,0.07768015563488007,0.47428345680236816,0.0774780884385109
1.0,0.7710225582122803,-0.011676442809402943,0.20160675048828125,0.0026528360322117805,1.136572003364563,-0.0014223965117707849,1.1365669285161748,-0.00368226116417322,0.005916795935577054,0.20672934509986562,0.11392234973400978,0.07554121315479279,0.2695903480052948,-0.26869234442710876
1.1,0.9976744651794434,0.9572438597679138,0.3504486083984375,0.00785939209163189,1.4702268838882446,0.0955243781208992,1.4707873911585447,0.08646644974881691,-0.025482172938811987,0.22309444413439108,0.35292547222281434,-0.6910383701324463,0.07616952061653137,5.520354747772217
1.2000000000000002,0.3935680389404297,-0.35614946484565735,0.4948921203613281,0.0218577291816473,1.7350878715515137,0.10606908798217773,1.7366403843736988,0.07655552751372682,-0.0681457322687423,0.2290094009248594,0.974132532676081,0.11338484287261963,0.07641980797052383,4.496710300445557
1.3,0.8621806502342224,0.598649799823761,0.7075881958007812,0.023888684809207916,2.0213377475738525,0.06542350351810455,2.022115166134925,0.033716160318830415,-0.0008850100457900461,0.22436485735378556,0.8985684996996506,-0.10968120396137238,-0.11530934274196625,1.893038272857666
1.4000000000000001,0.6914306282997131,-0.1829642951488495,0.9505462646484375,0.03599929437041283,2.280829668045044,0.03584514930844307,2.2810644371666315,-0.014624734427989367,-0.0111389136305371,0.2117563294488581,1.267716125242668,0.6622729301452637,-0.10139341652393341,-1.225141167640686
1.5,0.3897651433944702,-0.7367032170295715,1.1633338928222656,0.027363337576389313,2.464343547821045,-0.1326039582490921,2.462722791305388,-0.15990429830225655,0.0872332126835069,0.19942785202496124,0.6349328989137026,1.3393323421478271,-0.19251400232315063,-10.664873123168945
1.6,0.6254974603652954,-0.8351972699165344,1.4462890625,-0.01133885607123375,2.606161117553711,-0.4027480483055115,2.614639231100248,-0.34342896245688037,0.24752221870601443,0.16893105320844282,-1.301941002574694,1.5684831142425537,-0.4166743755340576,-22.10065269470215
1.7000000000000002,0.2745729982852936,0.3122340440750122,1.6851997375488281,-0.06433975696563721,2.7250778675079346,-0.5246915817260742,2.7521939019155828,-0.3560609023390278,0.3406408359491819,0.1494650450542457,-3.5268563174561636,0.24721913039684296,-0.18179722130298615,-22.568187713623047
1.8,0.014676030725240707,0.6690643429756165,2.000621795654297,-0.10651906579732895,2.878973960876465,-0.24132081866264343,2.889038318191564,-0.013579430974418744,0.1586370717612982,0.13288815454499625,-4.522128363611993,-2.5859789848327637,-0.32683899998664856,0.8379592299461365
1.9000000000000001,0.0723990797996521,0.048241645097732544,2.2591476440429688,-0.11696117371320724,2.8776865005493164,-0.16786766052246094,2.8823594405851805,0.03554155543219298,-0.02517700171889663,0.09360091486915378,-4.044984602803477,-1.1513599157333374,-0.46104344725608826,3.604249954223633
2.0,0.5465505123138428,-0.5455060601234436,2.5743560791015625,-0.13796956837177277,2.806530714035034,-0.2500254809856415,2.8171196434437094,-0.05444542669212221,-0.046447753140024715,0.04350830498712684,-3.983674770930601,0.5997129678726196,-0.4211440086364746,-3.586214065551758
2.1,0.9559782147407532,-0.31807228922843933,2.8799972534179688,-0.18376809358596802,2.7425715923309326,-0.44665583968162537,2.7714529253378295,-0.2006216858136521,0.08586165092348867,0.013475962609074268,-5.109652526602446,1.1252635717391968,-0.1018955186009407,-11.925271987915039
2.2,0.5047074556350708,0.7347671985626221,3.1286659240722656,-0.22807720303535461,2.835707902908325,-0.4220699071884155,2.864576481549712,-0.11654998293882751,0.12789115092451178,0.02999135857273391,-6.135928605076596,-0.3687196671962738,0.2781185805797577,-6.9794511795043945
2.3000000000000003,0.656952977180481,-0.2305551916360855,3.4535179138183594,-0.2679544985294342,2.960979461669922,-0.41994205117225647,2.989286762129647,-0.08896826698499505,0.05169620483896354,0.05460052664897228,-6.367405811876202,0.11140196025371552,0.17236244678497314,-5.223628997802734
2.4000000000000004,0.09627240896224976,0.9116112589836121,3.72198486328125,-0.3117988705635071,3.0661561489105225,-0.4338948726654053,3.096179307911503,-0.057026163186546075,0.06904449823131889,0.06860240956806031,-6.999335404725274,-0.4867328107357025,0.1377336084842682,-3.506535768508911
2.5,0.5895671248435974,0.1643257886171341,4.071315765380859,-0.3410907983779907,3.1480801105499268,-0.24226011335849762,3.155506936573848,0.1089693452253454,-0.06936642748743753,0.06323388528379384,-6.378329836513695,-1.0290746688842773,-0.09977786988019943,7.655990123748779
2.6,0.5971452593803406,-0.7022521495819092,4.351894378662109,-0.3622654974460602,3.19248104095459,-0.31843623518943787,3.208302017663597,0.01161878615932882,-0.08966064213139852,0.05924504786368518,-5.9036606825371205,0.6351830363273621,-0.02895944006741047,0.7069500088691711
2.7,0.5600486397743225,0.1263350397348404,4.712921142578125,-0.413457989692688,3.263120651245117,-0.41475626826286316,3.2891145912360344,-0.04128380268225712,0.027338908291130583,0.059634385216532276,-6.5245725988007965,0.21664981544017792,0.04842979833483696,-3.1819119453430176
2.8000000000000003,0.5809881687164307,-0.6301020383834839,5.081298828125,-0.4541792571544647,3.346691131591797,-0.4535684883594513,3.376506383268134,-0.07259853757069412,0.017016650933867686,0.06299482774131283,-6.486393572650074,0.6887552738189697,0.015228974632918835,-4.162553310394287
2.9000000000000004,0.7096189260482788,-0.8599587082862854,5.379020690917969,-0.510873556137085,3.3745720386505127,-0.6847265958786011,3.435270548444852,-0.23559120130595312,0.1389129743891086,0.06177221939658154,-7.546825462497562,1.5976632833480835,-0.06504563242197037,-15.64027214050293
3.0,0.3248649537563324,-0.7862890362739563,5.751895904541016,-0.6191570162773132,3.3574376106262207,-1.0457608699798584,3.4896928812141024,-0.433643518609644,0.3442884213425097,0.053336941698473285,-10.217055424182874,1.9649204015731812,-0.3240906894207001,-29.442245483398438
3.1,0.7480286955833435,0.0031480146571993828,6.045330047607422,-0.7340494990348816,3.3440468311309814,-1.2379698753356934,3.537450098879946,-0.44907173031720615,0.4711719165096766,0.04411619223966758,-13.07973147407598,0.5533698201179504,-0.15828455984592438,-29.332067489624023
3.2,0.4663081169128418,-0.8526132702827454,6.426799774169922,-0.8784770965576172,3.4243927001953125,-1.3237284421920776,3.6538367676654735,-0.3580491992382224,0.4035200167212149,0.0561100038189311,-15.537740584960561,-0.24042971432209015,-0.1931224912405014,-22.931800842285156
3.3000000000000003,0.44209638237953186,-0.5529778599739075,6.727733612060547,-1.0160692930221558,3.3806211948394775,-1.545466423034668,3.6924114446165173,-0.4279764612574324,0.42767083074923495,0.04720344638559164,-17.956244291342475,0.28033721446990967,-0.2605140805244446,-26.663921356201172
3.4000000000000004,0.30297571420669556,-0.2113039791584015,7.105770111083984,-1.2076469659805298,3.4078903198242188,-1.651965618133545,3.773003862776127,-0.3273357403697075,0.40974234300254514,0.04533878665560916,-20.903249097838582,-0.9151807427406311,-0.09082279354333878,-20.65249252319336
3.5,0.7066306471824646,0.5727262496948242,7.420173645019531,-1.3503451347351074,3.50799298286438,-1.501493215560913,3.814856368657598,-0.08583432130413948,0.237855600339832,0.044000087563600514,-21.882983321952544,-2.3900225162506104,-0.08016733825206757,-4.222012996673584
3.6,0.35683608055114746,0.34025970101356506,7.8271942138671875,-1.497072458267212,3.6470234394073486,-1.2341454029083252,3.8466483662202613,0.16489751290226806,-0.058502181058580086,0.038262717543498186,-21.150359482952076,-2.59243106842041,-0.0710708424448967,12.668986320495605
3.7,0.5102230906486511,0.3422905206680298,8.247451782226562,-1.6146318912506104,3.7432243824005127,-1.0385081768035889,3.8763954574658657,0.2525594338440268,-0.2708434763910708,0.03227946909036575,-19.233704722529133,-1.2822664976119995,-0.10996513068675995,17.943986892700195
3.8000000000000003,0.33033207058906555,0.7968391180038452,8.593832015991211,-1.695855975151062,3.8105132579803467,-0.8661550879478455,3.8947759466319605,0.3177361344874897,-0.3529053626236237,0.027491508549322596,-17.46998152737907,-0.9736424684524536,-0.2588423788547516,21.886804580688477
3.9000000000000004,0.6627920269966125,-0.6164053082466125,9.02691650390625,-1.772301197052002,3.8479580879211426,-0.7597293853759766,3.9139315186269976,0.25516710779341933,-0.40075681915366207,0.01897427010998229,-14.898758639438594,0.770029604434967,-0.03493209183216095,16.861888885498047
4.0,0.5751585364341736,0.4988057613372803,9.373298645019531,-1.8505395650863647,3.8707826137542725,-0.8758428692817688,3.96726230562602,0.10434832520454973,-0.2437743612641016,0.028140370063058893,-14.256302820250966,1.4647756814956665,0.07483796030282974,5.626846790313721
4.1000000000000005,0.7799253463745117,-0.12453687191009521,9.813154220581055,-1.9461673498153687,3.9259262084960938,-0.9451076984405518,4.038082480438766,0.0038778062887310227,-0.12673948790614603,0.03792803646047017,-13.590565060787592,1.7889362573623657,0.0952506884932518,-0.5439159274101257
4.2,0.27831268310546875,0.2320481687784195,10.171499252319336,-2.038393020629883,4.01202917098999,-0.9552293419837952,4.124053136756829,0.032045122367997836,-0.011718750777855325,0.050809769569972095,-13.837481916092436,0.24956165254116058,0.12168889492750168,1.1715712547302246
4.3,0.7299013137817383,0.014470293186604977,10.630609512329102,-2.1371757984161377,4.093059539794922,-0.9286288022994995,4.196943186946234,0.03399609259922931,-0.03576660236966758,0.05412924514698833,-13.246904606198022,0.3030587434768677,0.02279125526547432,2.41422700881958
4.4,0.1846078485250473,0.2285882979631424,11.003976821899414,-2.2199604511260986,4.172806739807129,-0.8873951435089111,4.2654653462793926,0.07477705659242806,-0.0317993136530863,0.05762629294433751,-13.010088373242413,-0.40057167410850525,0.0096063781529665,5.009859561920166
4.5,0.7603520750999451,0.8300288915634155,11.482109069824219,-2.2970924377441406,4.235327243804932,-0.5990705490112305,4.269557548517235,0.26030890247625926,-0.17013547176835775,0.04078988492711221,-11.53978143629751,-1.6768877506256104,-0.2768758535385132,18.6812686920166
4.6000000000000005,0.9944488406181335,-0.2634415030479431,11.86870002746582,-2.332273006439209,4.288459300994873,-0.4437926411628723,4.302725411968953,0.27274367790355547,-0.30026238841797076,0.0337206400480798,-9.535287529805563,-0.6377753019332886,0.014482321217656136,19.866117477416992
4.7,0.8055950999259949,0.3790721893310547,12.358198165893555,-2.3878414630889893,4.420953273773193,-0.478899210691452,4.443693252294862,0.16662107428510203,-0.23583981161205225,0.05779704951429817,-8.329812259915226,0.2335718274116516,0.15638893842697144,11.17287540435791
4.800000000000001,0.9729364514350891,0.017535747960209846,12.766426086425781,-2.4203927516937256,4.554710865020752,-0.40969303250312805,4.570444896174233,0.15579761183858848,-0.24142452168126105,0.07506376869439635,-7.092228869179163,0.5574397444725037,0.22619208693504333,12.467900276184082
4.9,0.8606414794921875,0.008092658594250679,13.292339324951172,-2.477722644805908,4.742774963378906,-0.5318582057952881,4.77242502004059,0.027330064327493964,-0.1138305270493859,0.10234354837917277,-6.726568014844756,1.1665384769439697,0.25440311431884766,1.2734618186950684
5.0,0.28825274109840393,0.920765221118927,13.726518630981445,-2.5248525142669678,4.913168430328369,-0.4915119707584381,4.937176283560733,0.07140299167125497,-0.06671141362885967,0.11902968019123542,-6.541417881552332,-0.005133405327796936,0.12993966042995453,4.443066596984863
5.1000000000000005,0.2840740978717804,-0.37868353724479675,14.287801742553711,-2.573861837387085,5.052834987640381,-0.5423319339752197,5.081820431698029,-0.019142594090919673,-0.06271360616120657,0.11714454288774055,-5.910404054771196,1.2598237991333008,-0.17383511364459991,-1.316319227218628
5.2,0.0597815178334713,-0.9990874528884888,14.73393440246582,-2.6437313556671143,5.032947063446045,-0.851347029209137,5.099005947507342,-0.2355552055849146,0.13976108657292505,0.08626527878073995,-6.955998679627093,2.6243109703063965,-0.5929713249206543,-14.916884422302246
5.300000000000001,0.34155917167663574,-0.4586113393306732,15.287342071533203,-2.773876905441284,4.870772361755371,-1.1918206214904785,5.002050016445763,-0.3526406482878739,0.39828814215016584,0.02925370084072899,-9.716811421761236,1.444716453552246,-0.1719529628753662,-26.1671085357666
5.4,0.7265339493751526,-0.9707006216049194,15.71975326538086,-2.903498888015747,4.7460737228393555,-1.455069661140442,4.946828185637813,-0.4139256010165153,0.5159634348319695,0.00502019377725828,-12.261615545118797,1.230835199356079,-0.5811052918434143,-30.56342887878418
5.5,0.8915725350379944,0.6330358386039734,16.237829208374023,-3.106065034866333,4.592268466949463,-1.8120801448822021,4.915943006900267,-0.45394765879232923,0.6556758261016512,-0.013585248039167639,-16.258038141347736,0.49711284041404724,-0.26090964674949646,-33.364837646484375
5.6000000000000005,0.9096490740776062,0.5349478125572205,16.661041259765625,-3.271531343460083,4.712859153747559,-1.7328851222991943,5.018361342738739,-0.17315219852339103,0.5373977313939556,0.013790148062461694,-18.211985352523985,-2.301347017288208,0.19422952830791473,-12.682175636291504
5.7,0.6575027108192444,0.5275887250900269,17.21683120727539,-3.4361257553100586,4.933808326721191,-1.3675681352615356,5.116999976193159,0.17034803504969376,0.07147585947878406,0.04078988994972647,-17.39917981858491,-3.835590362548828,0.03767905384302139,16.320842742919922
5.800000000000001,0.8797423243522644,0.7076690196990967,17.674942016601562,-3.531276226043701,5.102260589599609,-1.0144761800765991,5.189496225897588,0.3624278762993488,-0.27691640432195014,0.050140405253068746,-15.24037062192045,-3.624189615249634,-0.10116380453109741,30.463451385498047
5.9,0.2704799771308899,0.9046438336372375,18.26350212097168,-3.5921449661254883,5.155014991760254,-0.40675830841064453,5.137812107518753,0.5852509159051126,-0.6607360111011721,0.009760331535717632,-11.01017809624467,-3.183227062225342,-1.4698156118392944,39.206214904785156
6.0,0.9926460981369019,0.38733431696891785,18.733020782470703,-3.590155601501465,5.123687744140625,-0.01083885133266449,5.089300883515605,0.5927141783375293,-0.867095938333688,-0.015811889586503376,-6.7641059174556215,-0.8875899910926819,-0.9390767812728882,35.32510757446289
6.1000000000000005,0.6131088733673096,0.2268684357404709,19.23373031616211,-3.5904815196990967,5.101102352142334,-0.08218445628881454,5.093827847697413,0.2844597509488547,-0.6920469495416834,-0.016112416009367865,-4.119325119960148,3.04014253616333,-1.0073623657226562,14.272967338562012
6.2,0.685862123966217,0.8127001523971558,19.81867027282715,-3.5906147956848145,5.0830183029174805,0.0776815339922905,5.076198822373984,0.2744357925753914,-0.47384647325606,-0.014589282722152564,-2.219025213127791,0.8187892436981201,0.2870747745037079,21.23428726196289
6.300000000000001,0.30931228399276733,-0.19872677326202393,20.292526245117188,-3.5644826889038086,5.026124477386475,0.21804089844226837,5.025408605342662,0.23396034904422827,-0.4478453038415947,-0.023837361010517994,-0.18148804993443154,1.1672383546829224,0.25019848346710205,19.786331176757812
6.4,0.3158378601074219,0.4438561201095581,20.781055450439453,-3.551135540008545,5.109903812408447,0.19891686737537384,5.111521617709953,0.1517617997937589,-0.27191156606470146,0.011809395743900268,0.5286478302622432,0.779013991355896,0.8890920877456665,7.7591352462768555
6.5,0.03406086191534996,-0.19283133745193481,21.39519500732422,-3.5177791118621826,5.090457439422607,0.15445636212825775,5.092798153152939,0.004547704571940758,-0.18322751000733947,-0.0010723396958846783,1.6867912115077857,2.078734874725342,-1.802414059638977,1.5498239994049072
6.6000000000000005,0.40453940629959106,-0.21314865350723267,21.886768341064453,-3.5239064693450928,5.014881610870361,-0.0862060934305191,5.013221770958314,-0.15516615861666427,0.06652029710470998,-0.030332866239552843,0.7879971436811627,2.1567068099975586,-1.852020263671875,-7.492525100708008
6.7,0.5685373544692993,-0.5091400146484375,22.373924255371094,-3.546943187713623,4.938650608062744,-0.27814945578575134,4.941366705018487,-0.22479331575286246,0.21293068191382844,-0.044894830170324515,-0.6188353358702832,1.4172862768173218,0.22531910240650177,-16.104881286621094
6.800000000000001,0.8918492794036865,-0.24370835721492767,22.85129737854004,-3.5951406955718994,4.924283504486084,-0.45943862199783325,4.940086536874208,-0.2349401798994917,0.3362349568267841,-0.027348078173720206,-2.6074839265303433,0.511074423789978,0.15843209624290466,-19.73763084411621
6.9,0.957697868347168,0.8608076572418213,23.32328224182129,-3.6427814960479736,4.9959540367126465,-0.4327632188796997,5.013757324089439,-0.09527977592338865,0.3033160934280397,0.001290905003073216,-3.862060435249931,-1.165562391281128,0.2808215320110321,-7.458255290985107
7.0,0.34768688678741455,-0.2624265253543854,23.934648513793945,-3.678755044937134,5.107707977294922,-0.42654678225517273,5.124499317446429,-0.10064633259838124,0.11147395527060423,0.03546234004211666,-3.648559772150005,0.3599521815776825,0.001905329991132021,-3.7909023761749268
7.1000000000000005,0.6196566820144653,-0.20618605613708496,24.398475646972656,-3.7329421043395996,5.142344951629639,-0.6072901487350464,5.174892777938546,-0.1816525891391194,0.19804665394224133,0.03954679343880209,-4.724794568865907,0.8209068775177002,-0.36280524730682373,-9.702665328979492
7.2,0.10778987407684326,-0.4359734058380127,24.957987785339355,-3.8176772594451904,4.996286392211914,-0.8366961479187012,5.059058979196713,-0.26241265585532547,0.2931123914811827,-0.006345246249565552,-6.537480995907877,1.3322985172271729,-0.7939000129699707,-24.170305252075195
7.300000000000001,0.18593983352184296,-0.15772093832492828,25.421425819396973,-3.9137165546417236,4.875452995300293,-0.9261910915374756,4.958969218955183,-0.19103961076437026,0.37157793341174616,-0.03579702186365099,-8.550147795533986,-0.6406973004341125,-0.6347885131835938,-21.77653694152832
7.4,0.8903008103370667,-0.06391756236553192,25.905292510986328,-4.004430770874023,4.916830539703369,-0.8911299705505371,4.996326315368837,-0.07783656548171336,0.2623230349415349,-0.014008715202692694,-9.38029160025662,-1.2563694715499878,-0.01671256497502327,-4.7852373123168945
7.5,0.04604912921786308,0.5355349183082581,26.470940589904785,-4.099139213562012,4.9264726638793945,-0.7463904619216919,4.982215851078683,0.06896986921061221,0.09736067044667499,-0.01105124594279356,-9.408245906573834,-1.9823607206344604,-0.0012588133104145527,5.86680793762207
7.6000000000000005,0.8609815239906311,0.7668032646179199,26.911945343017578,-4.145668029785156,4.886617183685303,-0.4660901129245758,4.903205451990146,0.23418750784070608,-0.11077880574939138,-0.02575664429360803,-8.18293251312409,-2.432506799697876,-0.2696399390697479,18.019662857055664
7.7,0.41848865151405334,-0.40937578678131104,27.45836353302002,-4.171417236328125,4.817737579345703,-0.2977340519428253,4.8231013388884465,0.1921833081684164,-0.30426025254005135,-0.039860985741164985,-5.818180812520588,-0.26798006892204285,-0.05317004397511482,15.892616271972656
7.800000000000001,0.9720209836959839,-0.2399548590183258,27.907686233520508,-4.214739799499512,4.744935035705566,-0.5404337048530579,4.77508939874193,-0.07069877247747358,-0.16076660402282528,-0.038604223136738676,-5.649569406371281,2.3322298526763916,0.023723941296339035,-5.747156620025635
7.9,0.558205783367157,0.9605421423912048,28.368587493896484,-4.279659748077393,4.74931526184082,-0.5941245555877686,4.7860632340169476,-0.050775623066025566,0.010950588495201696,-0.02374173665055403,-6.522650655921522,0.7747244834899902,0.2646585702896118,-5.8923163414001465
8.0,0.8519073128700256,0.7828308343887329,28.91280174255371,-4.321683883666992,4.807973384857178,-0.2640535533428192,4.810640708728999,0.20992455799001714,-0.10549924762628471,-0.0059559243697454856,-5.64218418061791,-1.6817207336425781,0.10119946300983429,14.797011375427246
8.1,0.9196821451187134,0.4214358627796173,29.375186920166016,-4.321786880493164,4.882235050201416,0.012930851429700851,4.872122295709325,0.3143415785193255,-0.28897095080701146,0.011747925643676925,-3.5397655987847214,-1.7552801370620728,0.1356939673423767,24.778522491455078
8.200000000000001,0.32682764530181885,-0.6227295994758606,29.846858978271484,-4.305717468261719,5.009884357452393,0.10369104892015457,5.00583764629163,0.22645654691752526,-0.37109379023484895,0.04200566017248663,-1.4045103632378328,0.04929034411907196,0.23607517778873444,18.270736694335938
8.3,0.7458176016807556,0.1461142599582672,30.40932559967041,-4.303369998931885,5.127910137176514,0.07543881982564926,5.1266254326357075,0.13735015088118754,-0.23934936493069497,0.06408082485327173,-0.6918333551160748,0.3922809660434723,0.06653162837028503,6.737144470214844
8.4,0.08375627547502518,0.7304618954658508,30.979615211486816,-4.28011417388916,5.104493141174316,0.28565528988838196,5.107634971310034,0.2225178033048127,-0.25994870640750084,0.03428071639817011,0.7084645587998447,-0.8845640420913696,-1.0849825143814087,21.430212020874023
8.5,0.09213154762983322,0.6894880533218384,31.422876358032227,-4.229804992675781,4.974332332611084,0.6197572350502014,4.998782325411346,0.3745082760263508,-0.4046325415264459,-0.009705699477389104,2.8173543265927226,-1.780098795890808,-1.0764539241790771,30.88118553161621
8.6,0.7996335625648499,0.9579537510871887,31.88329315185547,-4.133894443511963,4.850763320922852,1.0719903707504272,4.93811485498121,0.5423004975159375,-0.6073607561370605,-0.026330376175551704,6.194667972478479,-2.0208425521850586,-0.753291130065918,40.43779373168945
8.700000000000001,0.27585291862487793,-0.9471979737281799,32.40369749069214,-3.9665565490722656,4.6482133865356445,1.5296730995178223,4.857382109722572,0.5929810437988069,-0.8072813638021981,-0.05108297983375544,11.25564269531354,-0.96849524974823,-0.5556636452674866,43.930816650390625
8.8,0.5170806050300598,0.8667508959770203,32.9080696105957,-3.7789647579193115,4.557408809661865,1.7547403573989868,4.858258563000983,0.4963995520706357,-0.7756958206139754,-0.04074205859758919,15.224183807192304,0.17510627210140228,-0.5475238561630249,35.552734375
8.9,0.9467753767967224,-0.29212504625320435,33.29953622817993,-3.598755121231079,4.422089576721191,2.0138063430786133,4.833601615279703,0.4965759123591338,-0.7825010725399121,-0.044252796403905566,18.618722980265275,0.4236191213130951,-0.3369704782962799,36.06790542602539
9.0,0.3917287588119507,0.9234679937362671,33.783671855926514,-3.366680860519409,4.417740821838379,2.1759369373321533,4.9086920416923805,0.3948138346227936,-0.649261469521783,-0.014739548867965333,21.62383876670518,0.7638576030731201,-0.15437977015972137,27.15106773376465
9.1,0.8190990090370178,0.8773690462112427,34.248061656951904,-3.093148946762085,4.169046401977539,2.5939412117004395,4.87886017045953,0.5533555355315602,-0.6877746276253497,-0.020661330061986623,25.418703733053118,-0.9768435955047607,-0.6202396154403687,40.1838264465332
9.200000000000001,0.808569610118866,0.020269906148314476,34.59470844268799,-2.839477062225342,4.003548622131348,2.898441791534424,4.909326084366283,0.5726113743577839,-0.7820738883254155,-0.018912801963603912,29.25056740385725,-0.5158719420433044,-0.3025856018066406,42.30060958862305
9.3,0.13816949725151062,0.045795734971761703,35.0448842048645,-2.512883186340332,4.191077709197998,2.880500316619873,5.081232135223768,0.20855317440122523,-0.5903014268720375,0.03307179876624758,32.15016819238018,3.3025431632995605,0.11744857579469681,13.22258186340332
9.4,0.0901077464222908,0.5665847063064575,35.50762748718262,-2.2006077766418457,4.149588584899902,2.9121477603912354,5.065913025011961,0.19030298289157965,-0.315338120598069,0.014616607152205302,32.909541513826895,0.9381366968154907,-0.5238704085350037,6.6563615798950195
9.5,0.7085950374603271,0.16298243403434753,35.86120319366455,-1.9383541345596313,4.035784721374512,2.957990884780884,5.000801376806958,0.17103795325122606,-0.2889098234772333,-0.008606030590720348,34.280333092110766,0.5665305256843567,0.13145725429058075,12.098576545715332
9.600000000000001,0.35704389214515686,0.45223337411880493,36.29813027381897,-1.6028603315353394,3.8774144649505615,3.075388193130493,4.943315564240785,0.2366150962831859,-0.2689820104020574,-0.019957813882144876,35.679436909894896,-0.514850914478302,-0.17324461042881012,16.576669692993164
9.700000000000001,0.4367063343524933,-0.1087159663438797,36.64305925369263,-1.3066636323928833,3.74100661277771,3.155064582824707,4.888638336823783,0.2253402103003208,-0.32687368674171846,-0.02963619088819959,37.504222602369445,0.07482723146677017,-0.10663358122110367,17.033458709716797
9.8,0.6127434968948364,0.2212717980146408,37.0795202255249,-0.9472014904022217,3.713679313659668,3.1198790073394775,4.848340625187541,0.1365732305299665,-0.2181396219044728,-0.028625324543937607,38.420230339683826,0.3212641179561615,-0.022297296673059464,9.435022354125977
9.9,0.21779765188694,0.47215092182159424,37.42032599449158,-0.641597330570221,3.563322067260742,3.263580560684204,4.82629558461291,0.23471932397892648,-0.24890141954747702,-0.025510748241680238,39.70169345034863,-0.9091947078704834,-0.09584154188632965,21.073034286499023
10.0,0.1834387630224228,0.5911282896995544,37.79139828681946,-0.25417307019233704,3.2087676525115967,3.485516309738159,4.720439756932422,0.40306611669460457,-0.4072570881135814,-0.04394545182445528,42.486819213084516,-1.8201336860656738,-0.4907846450805664,32.682716369628906
10.100000000000001,0.28678378462791443,-0.005310175474733114,38.069955468177795,0.07761561125516891,3.0434889793395996,3.52754807472229,4.647418201651335,0.3285188667312764,-0.4909973602117009,-0.056212436940015625,45.16969050032589,0.08904889971017838,-0.2325667291879654,25.95184326171875
10.200000000000001,0.69196617603302,-0.10413498431444168,38.35549879074097,0.39354583621025085,3.150569200515747,3.332005500793457,4.585539920771902,0.03421373355113655,-0.32757564203772416,-0.05584363286637332,46.17570479349436,2.7056355476379395,-0.03750551491975784,2.007169008255005
10.3,0.48982399702072144,-0.8251731991767883,38.717525362968445,0.7476559281349182,3.276732921600342,3.1220779418945312,4.5236317539602995,-0.14527583875498173,-0.032897942032796626,-0.051144448432526364,45.45488310239398,2.6918585300445557,0.06158580631017685,-11.98642635345459
10.4,0.7742956876754761,-0.1101393774151802,39.01802271604538,1.0117452144622803,3.3446671962738037,3.0176031589508057,4.50190447303312,-0.15994872435984187,0.15725991143003726,-0.04217640974119829,44.09201005019163,1.1672134399414062,0.1737608015537262,-13.203166961669922
10.5,0.5521515607833862,-0.5965645909309387,39.41944456100464,1.3687728643417358,3.4306304454803467,2.994257688522339,4.550993568481722,-0.15251851812098405,0.1955703734246953,-0.012294342027082983,43.03393684841268,0.49313679337501526,0.16066931188106537,-9.896183013916016
10.600000000000001,0.6616361737251282,-0.877358615398407,39.77792717516422,1.6501832008361816,3.6401989459991455,2.7738192081451416,4.565918177255399,-0.3122700186328644,0.31174320581544995,-0.0019192717280112328,41.21972948232856,1.5645227432250977,-0.07886278629302979,-23.786840438842773
10.700000000000001,0.17863678932189941,0.37514835596084595,40.142359897494316,1.8961944580078125,3.8078932762145996,2.6191537380218506,4.609786094999174,-0.33149610071079216,0.44009367126600873,0.00695311822912658,38.63419743589565,0.533334493637085,0.013843565247952938,-24.113346099853516
10.8,0.7008835673332214,0.020235158503055573,40.50514501333237,2.156643867492676,3.71999192237854,2.7819159030914307,4.644776366268774,-0.05872394558990557,0.31453238206116935,0.015996302527850555,37.51453889370407,-2.004647970199585,-0.01273357030004263,-3.7878775596618652
10.9,0.22490516304969788,0.9265250563621521,40.94378840923309,2.502269744873047,3.6178033351898193,2.9283971786499023,4.653519268138407,0.09364522998994573,0.07090745451307943,0.014725890586560545,37.8352787622537,-2.0332181453704834,-0.05458235368132591,7.39245080947876
11.0,0.08293894678354263,-0.5122407078742981,41.281922936439514,2.795626163482666,3.523197889328003,2.9794023036956787,4.612980247455053,0.10086967444147277,-0.10116576722531151,0.0008332848945853798,38.96696798576289,-0.7894949913024902,-0.15564952790737152,8.865212440490723
11.100000000000001,0.789438009262085,0.5511137843132019,41.61666977405548,3.06844162940979,3.496340751647949,2.878892660140991,4.528966841188532,0.02968082988377141,-0.07379150755512864,-0.02005343831011746,39.09261119392997,-0.0018324836855754256,-0.23245331645011902,1.977906584739685
11.200000000000001,0.5895190834999084,0.04687239229679108,41.940956354141235,3.346669912338257,3.400318145751953,2.887640953063965,4.460658265717473,0.05622813022455109,-0.10241697829844316,-0.03289418933212062,39.6166095733128,0.07113952934741974,-0.04618185758590698,3.973590850830078
11.3,0.34684836864471436,-0.681120753288269,42.337977170944214,3.6738195419311523,3.467893362045288,2.751188039779663,4.425801130023672,-0.08720297142657696,-0.022338860779814125,-0.029540565792348886,39.554836302401455,1.3968626260757446,0.013883672654628754,-6.50963830947876
11.4,0.6451586484909058,-0.1995794028043747,42.6550076007843,3.9073874950408936,3.5279042720794678,2.615306854248047,4.388922331747731,-0.15264095361154428,0.10958790407573343,-0.02996403832857784,38.54215789922552,1.0881539583206177,0.013828218914568424,-11.346370697021484
11.5,0.7742495536804199,-0.6810154914855957,43.06029772758484,4.187840938568115,3.650146484375,2.446654796600342,4.387476431416136,-0.24441688749054324,0.2214148223699301,-0.019288449577515424,37.02206019902402,1.3117058277130127,0.03811255469918251,-17.797468185424805
11.600000000000001,0.4073459208011627,0.24769166111946106,43.48058533668518,4.4446516036987305,3.76157546043396,2.390556812286377,4.452909448032738,-0.18923336103483224,0.31465410521249887,0.0027867188531552167,34.87018850075468,-0.3998793661594391,0.196705624461174,-13.640663146972656
11.700000000000001,0.4387102723121643,-0.9424967765808105,43.81689500808716,4.669918060302734,3.7414989471435547,2.4898836612701416,4.49376556663431,-0.06637808575238235,0.1912188491325827,0.016351478951057444,34.48913793491376,-1.072993278503418,0.09466281533241272,-3.880516290664673
11.8,0.5396775007247925,-0.8216277956962585,44.249512672424316,4.93266487121582,3.901585102081299,2.2597498893737793,4.50202359007566,-0.24621020634777246,0.22341112740159838,0.015176678185284988,33.20921096371292,0.976992666721344,-0.12864132225513458,-16.711387634277344
11.9,0.017091557383537292,-0.5623875260353088,44.61319923400879,5.11496114730835,4.041433811187744,1.9762494564056396,4.481876607375169,-0.3892701381024888,0.36085613484541396,0.004583054882460032,31.022425873586638,1.6902154684066772,-0.3240234851837158,-27.828184127807617
12.0,0.18257886171340942,0.4623536765575409,45.07597827911377,5.31868839263916,4.045451641082764,1.8781808614730835,4.45306804285835,-0.25184783980948566,0.42849834665662884,-0.008728977221760154,28.140990173308822,-0.7799890041351318,-0.20502741634845734,-18.75022315979004
12.100000000000001,0.6994670629501343,0.5815011262893677,45.42753267288208,5.496640682220459,3.883406639099121,2.0474181175231934,4.390067679236582,0.008593269673283555,0.23886371926744757,-0.02120773281232366,27.687040058240395,-2.5882458686828613,-0.16943508386611938,1.6982077360153198
12.200000000000001,0.7948185205459595,0.9044114351272583,45.84219837188721,5.746329307556152,3.6642990112304688,2.296429395675659,4.318154717131993,0.23284125909851672,-0.07461545498635738,-0.03201992231892843,28.989036684426466,-2.8014767169952393,-0.03999205678701401,17.650875091552734
12.3,0.44985219836235046,0.7378944754600525,46.15403652191162,5.973291397094727,3.467069387435913,2.5714352130889893,4.297905916685995,0.40106598425293005,-0.3225097100014523,-0.029205875054139716,31.232158214516385,-2.6129744052886963,-0.13713128864765167,28.481019973754883
12.4,0.6430659890174866,0.29462477564811707,46.52767372131348,6.2932891845703125,3.348576545715332,2.782487154006958,4.338023028729314,0.3698051472636805,-0.51702870762273,-0.014193142389789696,34.85222454540272,-0.22272302210330963,0.07394130527973175,25.029743194580078
12.5,0.16902126371860504,0.749681293964386,46.83085298538208,6.551714897155762,3.3459856510162354,2.881429433822632,4.404789333189702,0.30997820749881244,-0.4644164816859491,0.008633364588546513,36.70828025292843,0.31197258830070496,-0.04492958262562752,19.660354614257812
12.600000000000001,0.7303995490074158,0.22213509678840637,47.200571060180664,6.897593975067139,3.270437479019165,2.9822702407836914,4.4193628619442915,0.2427529355225384,-0.4274291074123476,0.008394299387518237,39.21722547919905,1.18567955493927,-0.07643260806798935,17.105379104614258
12.700000000000001,0.28824618458747864,-0.4846633970737457,47.501728534698486,7.170570373535156,3.344244956970215,2.9407336711883545,4.452451916992968,0.0869527684855318,-0.28890981598476834,0.014732718665028998,40.207712198427764,2.2751569747924805,0.04183809459209442,5.6237335205078125
12.8,0.6878200173377991,0.6257278323173523,47.88450527191162,7.494030475616455,3.347351551055908,2.935878038406372,4.451708644445247,0.08020229251520439,-0.09826659314739285,0.012096268758057548,40.22105496541955,0.4585108458995819,-0.0524526871740818,4.2978081703186035
12.9,0.7972069978713989,-0.964684247970581,48.18141841888428,7.766839981079102,3.328080892562866,2.996140956878662,4.477331140044842,0.08055385349307498,-0.10601805774676977,0.014937623295193221,40.96474371235166,0.4387308955192566,0.10427357256412506,5.685039043426514
13.0,0.8941491842269897,0.035627033561468124,48.5658016204834,8.097140312194824,3.442953109741211,3.00638484954834,4.570760877989873,0.02051769255335323,-0.011413574364012115,0.0348544492315422,40.87025136283283,0.23070545494556427,0.24366044998168945,0.8383769989013672
13.100000000000001,0.21719713509082794,0.45441311597824097,48.8783016204834,8.37584114074707,3.4716978073120117,3.148092031478882,4.685705781649808,0.08561794069832063,-0.027526852985505636,0.05717550308861067,41.1545458020013,-0.6082708835601807,0.2074175924062729,5.9080305099487305
13.200000000000001,0.7712926268577576,0.855389416217804,49.25670623779297,8.755599021911621,3.2914910316467285,3.433878183364868,4.748270565128347,0.2817077030110755,-0.19299315758823204,0.05695693478166604,42.81757298206458,-1.8969237804412842,-0.18422625958919525,20.388442993164062
13.3,0.4583336412906647,0.22389476001262665,49.54142475128174,9.08565616607666,3.179924249649048,3.61653470993042,4.80632626235491,0.30078131829461796,-0.3498535232354714,0.05265390616868418,45.09476305037498,-0.9171432256698608,-0.04967232048511505,22.430660247802734
13.4,0.9705460071563721,-0.14631067216396332,49.91178512573242,9.497655868530273,3.3562562465667725,3.573467254638672,4.902338815665184,0.03461717804524689,-0.2590026973360165,0.05957973943758549,46.39075928720287,1.8460133075714111,0.014370187185704708,2.4493021965026855
13.5,0.12377829849720001,0.4675130546092987,50.22608470916748,9.819595336914062,3.441258668899536,3.615337371826172,4.9912378555893735,0.021684264589191038,-0.1026611280070242,0.0667377696685489,46.16422118273369,0.8829903602600098,0.1037972941994667,0.09029442816972733
13.600000000000001,0.8212994337081909,0.12151195853948593,50.600791931152344,10.237211227416992,3.3799355030059814,3.783440113067627,5.072079206026437,0.11133562522255414,-0.12802122674764363,0.06624600807130394,46.96651779075681,-0.15239199995994568,-0.06436645239591599,6.514349460601807
13.700000000000001,0.4641973376274109,-0.5359202027320862,50.90628147125244,10.57721996307373,3.4144363403320312,3.6811158657073975,5.020832754497226,-0.015099348016227143,-0.08493040140408056,0.031227620651791358,47.324701182742295,1.5172017812728882,-0.3465351462364197,-6.2167487144470215
13.8,0.952742874622345,0.7819416522979736,51.30389404296875,10.990074157714844,3.420048236846924,3.7040977478027344,5.041352674192925,0.04281684300454325,0.021116460266556294,0.028591173680155117,46.79664365772415,-0.6066478490829468,-0.0003088501107413322,2.4444892406463623
13.9,0.045572035014629364,-0.7178974151611328,51.60788631439209,11.332077026367188,3.4165587425231934,3.728391408920288,5.057037520924976,0.01215118015850658,-0.04434204457525483,0.023229472129140366,47.36134726766146,0.4137939214706421,-1.4665497541427612,2.173496961593628
14.0,0.44931524991989136,0.1691538542509079,52.00673770904541,11.759081840515137,3.463465690612793,3.864393472671509,5.188717442393771,0.07964172698250938,-0.010528566948418994,0.04752445590672896,47.25232581291008,-1.1695469617843628,1.0622457265853882,8.332805633544922
14.100000000000001,0.6127240657806396,-0.3536313474178314,52.30651092529297,12.101078987121582,3.437760591506958,3.781906843185425,5.110869234902621,-0.005737488729232076,-0.061096183355221094,0.015634301584578524,47.79342314882367,0.7426534295082092,1.1425577402114868,2.4803731441497803
14.200000000000001,0.18076995015144348,-0.864264190196991,52.71175670623779,12.506037712097168,3.656102180480957,3.4853570461273193,5.044919627695302,-0.2521563863987146,0.15287965275462265,0.0007444903311408339,46.49176648119042,3.042131185531616,0.8047099113464355,-20.777629852294922
14.3,0.8701022267341614,0.2341655045747757,53.05207633972168,12.805082321166992,3.739384174346924,3.37935209274292,5.035187069267919,-0.22339594347104974,0.3142776647328691,-0.0005532362623828071,44.64509037596302,0.5534753799438477,-0.07250937074422836,-16.375396728515625
14.4,0.35869279503822327,0.5901749134063721,53.46268272399902,13.209562301635742,3.5185158252716064,3.6022789478302,5.034690614081118,0.09087161906161878,0.10169118217519815,-0.0029301508337582255,44.639924130670146,-2.1241455078125,0.38977348804473877,7.587463855743408
14.5,0.7977481484413147,-0.027130112051963806,53.77031421661377,13.54694652557373,3.4236199855804443,3.6202287673950195,4.982143221187823,0.07402065598546237,-0.0906372011067053,-0.013428149834950706,45.74764005205321,-0.5118296146392822,-0.7919394969940186,8.887312889099121
14.600000000000001,0.7798924446105957,0.6667900085449219,54.08518409729004,13.877094268798828,3.439117908477783,3.68611216545105,5.040598802484752,0.0855487994545725,-0.08477780210420577,0.0018099980083078257,46.013020548216026,-0.5445264577865601,0.46246567368507385,5.6204400062561035
14.700000000000001,0.4145814776420593,-0.9584527015686035,54.46099376678467,14.315016746520996,3.3615505695343018,3.830479860305786,5.095065124195379,0.11362029727359158,-0.2092590394869444,0.02202735866402624,47.452987396811345,0.2906293272972107,0.4393107295036316,6.860043048858643
14.8,0.7086232304573059,-0.4586828649044037,54.7774772644043,14.648077964782715,3.558061122894287,3.659423828125,5.102688337897202,-0.11727503736374256,-0.03302001856165304,0.019090374856744936,47.12120835197998,2.2091140747070312,-0.07889357954263687,-8.873695373535156
14.9,0.20807790756225586,-0.6080847382545471,55.198984146118164,15.031408309936523,3.751213788986206,3.2787399291992188,4.971054344852751,-0.33220342341121256,0.273062776465075,-0.0228264935948711,44.97826137366475,2.7906060218811035,-0.7542646527290344,-24.838308334350586
15.0,0.5785139203071594,-0.9783811569213867,55.56680870056152,15.308837890625,4.02026891708374,2.962857484817505,4.97032901815451,-0.4867402719110099,0.4962722926371954,-0.018099996840645123,41.98256432628386,2.4928128719329834,-0.3782569468021393,-37.03369903564453
15.100000000000001,0.7996660470962524,-0.11302492022514343,56.055559158325195,15.613752365112305,4.25139856338501,2.6951751708984375,5.014107372592735,-0.4439439184071765,0.6921685582553437,-0.009002218631851602,37.43237971697032,0.3428967297077179,-0.08867134898900986,-34.43299865722656
15.200000000000001,0.30256518721580505,0.4526994228363037,56.44915962219238,15.873455047607422,4.210607528686523,2.918128252029419,5.121849349580474,-0.1065246268520954,0.49744598486159186,0.026473811723856707,35.91505887011329,-3.4123291969299316,0.02446928434073925,-6.628739833831787
15.3,0.9837754964828491,-0.2897622287273407,56.92437553405762,16.22314453125,4.187314033508301,2.9302618503570557,5.1097336135103415,-0.10322657524134637,0.1798876408856354,0.014309244247298738,36.14146933919785,-0.6294195055961609,-0.3334888517856598,-1.3758862018585205
15.4,0.6367366909980774,-0.35222893953323364,57.31447219848633,16.473297119140625,4.275129795074463,2.6534581184387207,5.024518776818599,-0.2679287450780583,0.24976027900640413,-0.011693289168905678,34.87912648775491,1.4622783660888672,0.09628239274024963,-15.003113746643066
15.5,0.5111772418022156,-0.10966236889362335,57.71296310424805,16.70794677734375,4.306326389312744,2.6297547817230225,5.043424470919622,-0.15468286723347635,0.2970808469696914,-0.0008537742981223667,33.16798429857319,-0.6120269894599915,-0.51628577709198,-12.97669506072998
15.600000000000001,0.7559722065925598,-0.5007125735282898,58.229156494140625,17.01220703125,4.5235090255737305,2.555434226989746,5.190428255621323,-0.22766755624257629,0.2692864391094613,0.03756604437396688,31.974656054200643,0.760002851486206,1.4724218845367432,-14.165343284606934
15.700000000000001,0.5362299084663391,-0.9805256128311157,58.6528263092041,17.22191619873047,4.632069110870361,2.2142229080200195,5.119804386205072,-0.38268836051710764,0.4085565554117186,0.007280979082707986,29.823464641046805,1.996777892112732,1.0805219411849976,-26.482622146606445
15.8,0.8039776086807251,-0.28240349888801575,59.19394874572754,17.443241119384766,4.733704566955566,2.019533157348633,5.137791618906343,-0.2992831126914153,0.5340518495589482,0.01465075706490053,26.438262677606122,-0.6717163324356079,1.060577154159546,-20.895143508911133
15.9,0.43762996792793274,-0.46116402745246887,59.64039421081543,17.61983871459961,4.9578680992126465,1.8980631828308105,5.298071323624274,-0.3369572450599234,0.4926908721466424,0.05600071331361704,24.587883050263358,0.2546311318874359,1.5589096546173096,-23.692964553833008
16.0,0.17144398391246796,-0.548529326915741,60.10448455810547,17.767627716064453,5.148990154266357,1.5876537561416626,5.369476768668869,-0.4488466206266155,0.5805469077414224,0.058883037970503725,21.915140561026856,1.274888038635254,0.9629204273223877,-31.436124801635742
16.1,0.4423927962779999,0.7711482644081116,60.698036193847656,17.927165985107422,5.038029193878174,1.448530673980713,5.236610667598737,-0.2405992265633652,0.5634888313511212,-0.0022266304106278298,18.671604175278812,-1.7538175582885742,-1.6966181993484497,-20.320547103881836
16.2,0.6607987284660339,-0.23428654670715332,61.16399574279785,18.071901321411133,4.948500156402588,1.4935330152511597,5.167732312419761,-0.11330230683604192,0.32679301917336945,-0.026426006932591953,18.050623406388162,-1.7109668254852295,-1.7731131315231323,-11.062541007995605
16.3,0.14856559038162231,0.3939513862133026,61.73346710205078,18.238101959228516,4.936596393585205,1.5553135871887207,5.175779101683823,0.017175512373823087,0.18696376136305204,-0.014070189022839883,17.297312216340618,-2.4667961597442627,1.268509030342102,3.6000542640686035
16.400000000000002,0.7728394865989685,0.6518548727035522,62.176286697387695,18.40180778503418,4.712624549865723,1.7943243980407715,5.038032133787272,0.21601484284268113,-0.07650756285908575,-0.050140409664739316,18.389095206702283,-2.3603038787841797,0.770164966583252,16.55191993713379
16.5,0.1290881335735321,-0.7805184721946716,62.60649299621582,18.592037200927734,4.676814556121826,1.9750182628631592,5.071920480506992,0.2211654819580291,-0.2954711934024174,-0.01633097674880151,20.397477908956116,-0.8184041976928711,0.8020659685134888,16.946908950805664
16.6,0.5950700640678406,0.7685698866844177,63.15004920959473,18.81734848022461,4.642593860626221,2.0193536281585693,5.059290973220746,0.18719422685684783,-0.24014283722225785,-0.009002188819061872,21.388244769127624,-0.6070421934127808,0.6978340148925781,13.96006965637207
16.7,0.7134795188903809,0.9520070552825928,63.56374740600586,19.023305892944336,4.440023899078369,2.2887730598449707,4.982891642304092,0.3508350394633015,-0.36618042259073186,-0.02715682702670381,23.243070729683087,-1.780068278312683,-0.37170448899269104,24.459585189819336
16.8,0.9612040519714355,0.5625131726264954,63.96875,19.264915466308594,4.287832736968994,2.5864615440368652,4.988663805708873,0.4341961913868484,-0.5119629861883201,-0.020722792294695685,26.124487169034587,-1.2690060138702393,-0.1455053985118866,30.12936019897461
16.900000000000002,0.13422909379005432,-0.2069871574640274,64.47304725646973,19.597211837768555,4.342929840087891,2.7341561317443848,5.125798855887312,0.25066997759120646,-0.5380859529705544,0.023338754845862557,29.393338491149112,1.6465402841567993,0.23159761726856232,16.64762306213379
17.0,0.6909375190734863,0.508141279220581,64.88642501831055,19.845304489135742,4.36660099029541,2.685297727584839,5.124251843928542,0.14167263044105827,-0.3112487475245957,0.014452674660190628,30.006294221082644,1.33676016330719,-0.13351300358772278,7.125085830688477
17.1,0.6997129917144775,0.7467993497848511,65.27945327758789,20.10915756225586,4.1194047927856445,2.858289957046509,5.0056153396976235,0.2883268915001125,-0.3275451626810961,-0.024383775792441924,31.458597705035906,-0.8992431163787842,-0.21122558414936066,19.84178352355957
17.2,0.8670257329940796,0.4883876144886017,65.74070930480957,20.475833892822266,3.9104275703430176,3.179316759109497,5.024332239664739,0.39444186278692817,-0.4727782686625367,-0.014520972568700514,34.62346400732355,-0.9834561347961426,0.14748813211917877,29.203617095947266
17.3,0.39708590507507324,-0.6609350442886353,66.10038566589355,20.789703369140625,3.9516265392303467,3.3352599143981934,5.163362938338214,0.2810590136188891,-0.5063169895416316,0.03161009975002483,37.04937851044051,0.9616143703460693,0.1915273815393448,19.618690490722656
17.400000000000002,0.4268471598625183,-0.604394793510437,66.48520278930664,21.088134765625,4.149360656738281,3.0925045013427734,5.174701218885443,-0.056967058712595886,-0.22268673534545055,0.020360795432570387,37.3277686975493,3.949824810028076,-1.702165126800537,-6.236330986022949
17.5,0.4903118908405304,-0.4855925440788269,66.99163436889648,21.41811752319336,4.410680294036865,2.7639150619506836,5.196943609812117,-0.2917263140616164,0.19931707437655966,0.01794974274784368,35.285844540576996,3.4947710037231445,1.0859417915344238,-25.940454483032227
17.6,0.1490648239850998,0.8350203633308411,67.40630531311035,21.652063369750977,4.411096096038818,2.593705892562866,5.111939641053378,-0.2305474611252576,0.39193330846892904,-0.007936677881098544,33.03762696539064,0.26214733719825745,1.3596960306167603,-19.528926849365234
17.7,0.5221855640411377,0.5660006403923035,67.81025505065918,21.90825080871582,4.156772136688232,2.7691597938537598,4.994064386594202,0.07950762727768135,0.19541925444034394,-0.03723136044291076,32.75867553107694,-3.340482234954834,-0.03127400577068329,1.715606451034546
17.8,0.8493550419807434,0.17692729830741882,68.28494834899902,22.25817108154297,4.06313943862915,2.95404314994812,5.021500756409362,0.14143260896702925,-0.11453246358766443,-0.014131660735265719,34.405118064415284,-1.346174716949463,0.15902000665664673,14.889396667480469
17.900000000000002,0.5237654447555542,0.5385636687278748,68.66028213500977,22.546417236328125,3.956199884414673,3.0975236892700195,5.019871212253257,0.21694133636225565,-0.21710200195204474,-0.010593616205565658,35.58473648270594,-1.325622320175171,-0.5840739607810974,14.246366500854492
18.0,0.15635830163955688,-0.3078513443470001,69.02486801147461,22.854782104492188,3.8981575965881348,3.2083699703216553,5.0451856171249645,0.1880760565700883,-0.3089599214247995,0.0036678055821524396,37.32111062791199,0.119610495865345,0.501373291015625,13.252622604370117
18.1,0.8395901322364807,0.6129369139671326,69.48636627197266,23.224979400634766,3.9134597778320312,3.2341511249542236,5.074966831382975,0.1400449646165658,-0.19537353079522596,0.012547054969718058,37.99022840592796,-0.0942448154091835,1.013469934463501,11.129018783569336
18.2,0.08631128072738647,0.8263346552848816,69.83338356018066,23.540361404418945,3.646138906478882,3.435760974884033,4.999123894182883,0.3279370251814613,-0.3000792916226891,-0.007724939299940484,39.54528491628571,-2.102267026901245,0.1324130743741989,23.177038192749023
18.3,0.2635273337364197,0.13640788197517395,70.24050712585449,23.957782745361328,3.5411343574523926,3.5274171829223633,4.993150533043133,0.2252826541853361,-0.3978271478911685,-0.0083943105292479,42.305474040014204,0.49327340722084045,-0.09260044246912003,17.775171279907227
18.400000000000002,0.21703898906707764,-0.8480822443962097,70.56928443908691,24.27740478515625,3.6028478145599365,3.3989808559417725,4.953082281301612,0.02364632305431158,-0.2659607341463322,-0.01440486061423947,43.058701690287826,2.1321749687194824,-0.13498149812221527,1.5413312911987305
18.5,0.871401309967041,0.43409499526023865,70.91117095947266,24.583003997802734,3.593853712081909,3.2894365787506104,4.87196219250173,-0.012724162100846925,-0.07522580426454833,-0.03005965779878962,42.617353854496585,1.150928020477295,-0.13847486674785614,-2.740689992904663
18.6,0.061337344348430634,0.5320093035697937,71.30901718139648,24.97623062133789,3.3417601585388184,3.445767641067505,4.795933605732001,0.19923966180393338,-0.12973021254091768,-0.03854275148525347,43.49899620513332,-1.2339928150177002,-0.11248738318681717,14.244101524353027
18.7,0.7249400019645691,0.820823073387146,71.59806632995605,25.310548782348633,3.0253264904022217,3.5856852531433105,4.678210850054686,0.35225324777699596,-0.2947387901207132,-0.05743505470669261,45.53884091847105,-1.7854270935058594,-0.3556661307811737,23.7934513092041
18.8,0.9559633731842041,0.8478397727012634,71.84823989868164,25.658161163330078,2.624034881591797,3.7451207637786865,4.54483224950956,0.5059529809326178,-0.49920648577651505,-0.0794965723017834,48.63053716076374,-2.265254020690918,-0.523372232913971,37.587806701660156
18.900000000000002,0.3429645299911499,0.11413560807704926,72.11589050292969,26.113231658935547,2.3694894313812256,3.928441047668457,4.564808962715569,0.45787374279967086,-0.6666257217665283,-0.05893087796046739,53.17528172747069,-0.01116802915930748,0.06945725530385971,33.28070068359375
19.0,0.8655186295509338,-0.48821642994880676,72.34347915649414,26.480411529541016,2.5281498432159424,3.878265619277954,4.626967298885598,0.15381631405518048,-0.4992064884289457,-0.02377588957521312,54.99661135236431,2.802825927734375,0.19621652364730835,10.480961799621582
19.1,0.7704631090164185,-0.05472611263394356,72.59720230102539,26.839298248291016,2.6912777423858643,3.819126844406128,4.672111658714291,-0.00885374672449979,-0.20898437285747104,-0.0010381868459412454,54.93683439984356,2.566216230392456,0.28338623046875,-2.75437331199646
19.200000000000003,0.3132701516151428,-0.9096139073371887,72.92130661010742,27.28304100036621,2.8456857204437256,3.837193489074707,4.776504547757985,-0.08357868975961846,0.0028703554649928543,0.029137581674271888,54.4415987951564,1.7260164022445679,0.19297078251838684,-7.092060089111328
19.3,0.5859813094139099,0.9744990468025208,73.19718551635742,27.63280487060547,2.946373224258423,3.822951078414917,4.8257422232949825,-0.09100614753276481,0.13719082112098152,0.036684947871087385,53.458708354520816,0.5501534342765808,0.05275147408246994,-7.861789703369141
19.400000000000002,0.11679437011480331,0.303088515996933,73.52409744262695,28.09815788269043,2.7042336463928223,4.028138637542725,4.848609549337091,0.17252807199047426,-0.008972166221960655,0.03236826964378231,54.0872284686694,-2.011643886566162,-0.1469220668077469,13.289241790771484
19.5,0.7299425601959229,0.2650099992752075,73.76031112670898,28.477479934692383,2.5577876567840576,4.083785533905029,4.814463586580643,0.20130165825923685,-0.1602172752661355,0.01432972707065787,55.54570142017518,-1.2518337965011597,-0.24380441009998322,15.55728816986084
19.6,0.8290437459945679,0.0836540013551712,73.99462127685547,28.864765167236328,2.5368311405181885,4.077390193939209,4.800845068011853,0.11184660066671581,-0.20663450600671715,0.005149965094429085,56.77675822550699,0.250693678855896,-0.02598985843360424,8.742860794067383
19.700000000000003,0.37081238627433777,-0.5291329622268677,74.30392074584961,29.3458309173584,2.692138910293579,4.028487205505371,4.844825427580876,-0.06314787013797751,-0.0879516498524265,0.015251811985885289,56.99292303563734,1.657029151916504,0.05992188677191734,-4.8426127433776855
19.8,0.6888731718063354,-0.2597202956676483,74.57038879394531,29.71170997619629,2.8699772357940674,3.9120736122131348,4.848525760989339,-0.1813483564117142,0.09478661927637436,0.0138243046058807,55.8774888961017,1.8381435871124268,-0.031446442008018494,-14.530294418334961
19.900000000000002,0.8339486718177795,0.1617383062839508,74.84918594360352,30.07900619506836,2.895033836364746,3.9448776245117188,4.892464676845557,-0.08408193556586463,0.17754429401214541,0.0212077386480205,54.71069929001224,-0.1626424640417099,0.11381613463163376,-7.677163124084473
