t,throttle,steering,x,y,v_x,v_y,U,V,roll,pitch,yaw,p,q,r
0.0,0.34145841002464294,0.0,0.0,-7.62939453125e-06,0.0,0.0,0.0,0.0,0.003572109730714736,1.4708937022719858e-19,1.4484001766859818e-07,0.0,0.0,0.0
0.1,0.34145841002464294,0.004986437503248453,0.0,-7.62939453125e-06,-5.34128162144043e-07,-1.1484933537531106e-07,-5.341281624343747e-07,-1.1484933402506968e-07,0.003572109730714736,1.4708937022719858e-19,1.4484001766859818e-07,0.0,0.0,0.0
0.2,0.34145841002464294,0.009960014373064041,0.0,-7.62939453125e-06,-6.75449371101422e-07,4.9889807840486355e-09,-6.754493710888102e-07,4.988982491540874e-09,0.003572109730714736,1.4708937022719858e-19,1.4484001766859818e-07,0.0,0.0,0.0
0.30000000000000004,0.34145841002464294,0.014907903037965298,0.0,-7.62939453125e-06,-5.7342219861311605e-08,9.411113666146775e-08,-5.734221962340475e-08,9.411113680642517e-08,0.003572109730714736,1.4708937022719858e-19,1.4484001766859818e-07,0.0,0.0,0.0
0.4,0.34145841002464294,0.01981734111905098,0.0,-7.62939453125e-06,5.242840188657283e-07,8.374544080425039e-08,5.242840190774314e-07,8.374543947889437e-08,0.003572109730714736,1.4708937022719858e-19,1.4484001766859818e-07,0.0,0.0,0.0
0.5,0.34145841002464294,0.02467566914856434,0.0,-7.62939453125e-06,-3.997818396328512e-07,-1.5514125095705822e-07,-3.9978184002503824e-07,-1.5514124994643563e-07,0.003572109730714736,1.4708937022719858e-19,1.4484001766859818e-07,0.0,0.0,0.0
0.6000000000000001,0.34145841002464294,0.029470352455973625,0.0,-7.62939453125e-06,1.9283724839169736e-08,4.431500144619349e-08,1.9283724951195187e-08,4.431500139744548e-08,0.003572109730714736,1.4708937022719858e-19,1.4484001766859818e-07,0.0,0.0,0.0
0.7000000000000001,0.34145841002464294,0.03418903052806854,0.0,-7.62939453125e-06,-3.093483940119768e-07,-1.9377493742922525e-07,-3.0934839450182726e-07,-1.9377493664721256e-07,0.003572109730714736,1.4708937022719858e-19,1.4484001766859818e-07,0.0,0.0,0.0
0.8,0.34145841002464294,0.03881952911615372,0.0,-7.62939453125e-06,-2.4470085691064014e-07,-1.5120481577923783e-07,-2.447008572928761e-07,-1.5120481516064994e-07,0.003572109730714736,1.4708937022719858e-19,1.4484001766859818e-07,0.0,0.0,0.0
0.9,0.34145841002464294,0.04334990307688713,0.0,-8.106231689453125e-06,-3.15053547694788e-08,3.5394626252127637e-07,-3.1505353874725584e-08,3.5394626260091986e-07,0.003572109730714736,1.4708937022719858e-19,1.4484001766859818e-07,0.0,0.0,0.0
1.0,0.34145841002464294,0.047768473625183105,0.0,-8.106231689453125e-06,2.223689818947605e-07,1.0184526644252401e-07,2.2236898215221874e-07,1.0184526588038963e-07,0.003572109730714736,1.4708937022719858e-19,1.4484001766859818e-07,0.0,0.0,0.0
1.1,0.34145841002464294,0.05206384137272835,0.0071563720703125,0.00022220611572265625,0.1937909722328186,0.004765669349581003,0.1937919201292417,0.004726966882918578,0.0019431471108132075,0.04195101962356877,0.011442651535098896,-0.039158694446086884,1.0330637693405151,0.2980223596096039
1.2000000000000002,0.34145841002464294,0.05622493103146553,0.057861328125,0.0015201568603515625,0.596808671951294,0.012894191779196262,0.5968249263494337,0.012118514178680168,-0.0030212396266265065,0.13599590105928452,0.07446681557822638,-0.04390624538064003,0.6337711811065674,0.724910318851471
1.3,0.34145841002464294,0.060241006314754486,0.12764739990234375,0.0033102035522460938,0.8434520363807678,0.019445938989520073,0.8435020972000575,0.017137509654349868,-0.006256102575840816,0.16769478824769607,0.1568070797201325,-0.035020627081394196,0.19069993495941162,1.0078197717666626
1.4000000000000001,0.34145841002464294,0.06410171091556549,0.23798751831054688,0.0063877105712890625,1.0504554510116577,0.026926588267087936,1.0505791187969677,0.021568747381266806,-0.008666991251356861,0.16508564990794453,0.29221889924221117,-0.01834416389465332,-0.16274496912956238,1.5014972686767578
1.5,0.34145841002464294,0.06779708713293076,0.33177947998046875,0.009218692779541016,1.048879861831665,0.030925661325454712,1.0490724603554158,0.023501787341909334,-0.00857543677444235,0.12214425406577498,0.40549526982644146,-0.013076942414045334,-0.4911697506904602,1.6466398239135742
1.6,0.34145841002464294,0.07131760567426682,0.4499626159667969,0.013203144073486328,1.0701857805252075,0.033766984939575195,1.0704612038630423,0.023465402923094146,-0.007843016776983599,0.08197593284811723,0.5514525466436173,0.012913535349071026,-0.24292290210723877,1.0587102174758911
1.7000000000000002,0.34145841002464294,0.07465419173240662,0.5475654602050781,0.01686382293701172,1.0994315147399902,0.038269493728876114,1.0998098722396887,0.025148651611042218,-0.00738525350458441,0.06368466780540429,0.6836538836950802,0.009374560788273811,-0.15128308534622192,1.2468658685684204
1.8,0.34145841002464294,0.07779822498559952,0.67376708984375,0.022169113159179688,1.1439862251281738,0.04632920026779175,1.1445571294035257,0.028980262456077363,-0.00790405332461236,0.05158841447985528,0.8686764642740769,-0.012384760193526745,-0.09472648054361343,1.8487788438796997
1.9000000000000001,0.34145841002464294,0.08074160665273666,0.7817001342773438,0.02710247039794922,1.1874767541885376,0.05267985165119171,1.1882298293329734,0.03140192974116422,-0.008392334778195187,0.04759275898900481,1.026307317026259,-0.02074127458035946,-0.027399960905313492,2.0384998321533203
2.0,0.34145841002464294,0.08347674459218979,0.9191780090332031,0.033944129943847656,1.2394596338272095,0.05892384052276611,1.2404394672858905,0.032282051801718684,-0.009094238821780277,0.04381566352290497,1.2310205126595137,-0.003937083762139082,-0.035783495754003525,1.630304217338562
2.1,0.34145841002464294,0.0859965831041336,1.03192138671875,0.04004812240600586,1.2745492458343506,0.06555824726819992,1.2757749039662074,0.034235336303371215,-0.009735107716582321,0.04056449483655758,1.4073351178497524,-0.006670525297522545,-0.02743183821439743,1.7241387367248535
2.2,0.34145841002464294,0.0882946252822876,1.1776924133300781,0.04861783981323242,1.3179082870483398,0.074859619140625,1.3195159597557418,0.0369303073159729,-0.010711670249547573,0.03744992855213645,1.6478499352710179,-0.012352950870990753,-0.02730846032500267,2.394244432449341
2.3000000000000003,0.34145841002464294,0.09036494791507721,1.3009757995605469,0.05640411376953125,1.3555684089660645,0.08255727589130402,1.3575282743924104,0.03870916447747979,-0.01141357128188244,0.036336601380341296,1.8518271285192547,-0.014993451535701752,-0.02775534614920616,2.876474618911743
2.4000000000000004,0.34145841002464294,0.09220219403505325,1.4546356201171875,0.06681203842163086,1.4032883644104004,0.09200666099786758,1.4057205864391207,0.04041153571504377,-0.01242065526644142,0.036254643088340616,2.1045504625492275,-0.009506854228675365,-0.007470212876796722,2.103848695755005
2.5,0.34145841002464294,0.09380164742469788,1.5853004455566406,0.07629537582397461,1.4393465518951416,0.10054357349872589,1.442241380702042,0.04203934365561015,-0.013183591623755745,0.035537472961502385,2.3262069886049717,-0.007998873479664326,0.000984171056188643,2.185410737991333
2.6,0.34145841002464294,0.09515916556119919,1.7516746520996094,0.0892190933227539,1.4873042106628418,0.11248009651899338,1.4908892256295878,0.044439892776066275,-0.014251705907734624,0.035687737156570025,2.61751867589882,-0.01261378638446331,0.009934845380485058,2.8142318725585938
2.7,0.34145841002464294,0.09627125412225723,1.8879737854003906,0.1004629135131836,1.5257134437561035,0.12206665426492691,1.5299005158286012,0.04589326975626987,-0.015014644496604262,0.03600192394799167,2.856060839523062,-0.012516762129962444,-0.005248140078037977,2.888932228088379
2.8000000000000003,0.34145841002464294,0.09713505208492279,2.0634078979492188,0.1158151626586914,1.5710663795471191,0.13408391177654266,1.576069263240243,0.04726247782278556,-0.015960690777634182,0.035544299284363784,3.1604868049031456,-0.008274458348751068,-0.0009996367152780294,2.508413314819336
2.9000000000000004,0.34145841002464294,0.09774831682443619,2.2078781127929688,0.1292099952697754,1.6053193807601929,0.1444544941186905,1.6110748172677305,0.04853193053160623,-0.01663207842779327,0.034608564222836036,3.4164528312441247,-0.008382216095924377,-0.011695957742631435,2.6520988941192627
3.0,0.34145841002464294,0.09810947626829147,2.354938507080078,0.14353418350219727,1.6380462646484375,0.15500399470329285,1.644616439732527,0.04958396579726959,-0.017303459997290008,0.03372747076678379,3.678749920776489,-0.006950927432626486,-0.002610299503430724,2.651515007019043
3.1,0.34145841002464294,0.09821759909391403,2.5466041564941406,0.16324377059936523,1.6775344610214233,0.16902761161327362,1.685263326888654,0.050790948468310684,-0.01806640276988903,0.032245321382693135,4.027403761646951,-0.008824187330901623,-0.022675732150673866,3.4349048137664795
3.2,0.34145841002464294,0.09807240217924118,2.738117218017578,0.18404150009155273,1.716865062713623,0.1829809844493866,1.7258103194108012,0.05183074041442645,-0.018768309017499055,0.031528155012526704,4.363306261666541,-0.007009371183812618,-0.0076401508413255215,2.8240554332733154
3.3000000000000003,0.34145841002464294,0.09767426550388336,2.8944969177246094,0.20186710357666016,1.7458940744400024,0.19435164332389832,1.75589488568282,0.052457896072270443,-0.019287107636693925,0.03065388847329563,4.640752385460573,-0.0068327030166983604,-0.005123974289745092,2.769202709197998
3.4000000000000004,0.34145841002464294,0.09702420979738235,3.094482421875,0.22574281692504883,1.7806675434112549,0.209005668759346,1.7921066891353843,0.05304606006128648,-0.019805903668340424,0.02947909605224958,4.999004951234248,-0.007179517298936844,-0.008778415620326996,3.3811697959899902
3.5,0.34145841002464294,0.09612391144037247,3.257030487060547,0.2459883689880371,1.8086069822311401,0.22088851034641266,1.821259868519831,0.05351113433125615,-0.020111079051170978,0.028966832554562567,5.280209656952333,-0.006838928442448378,0.023663103580474854,2.8893563747406006
3.6,0.34145841002464294,0.09497569501399994,3.4649620056152344,0.27297449111938477,1.8445652723312378,0.23595084249973297,1.8588155261517418,0.053839425182387685,-0.0204772903780375,0.028427245219692098,5.630432284239702,-0.004209308885037899,-0.018443450331687927,2.994368314743042
3.7,0.34145841002464294,0.09358252584934235,3.634227752685547,0.2958211898803711,1.869200587272644,0.2477221041917801,1.8847796737738431,0.053690387357199554,-0.020538330146283038,0.027348073982411243,5.917619978630742,-0.0026764417998492718,-0.011646156199276447,2.8445208072662354
3.8000000000000003,0.34145841002464294,0.0919479951262474,3.8459320068359375,0.3255167007446289,1.9003875255584717,0.262861430644989,1.9177378798470415,0.05338823108846766,-0.020721435674808632,0.026569436051547313,6.280521995289244,-0.0028828175272792578,-0.010115441866219044,3.3579256534576416
3.9000000000000004,0.34145841002464294,0.09007631242275238,4.0191192626953125,0.35068273544311523,1.923614501953125,0.27479809522628784,1.9424196948346903,0.05303276706596374,-0.020874026413834453,0.025722493989257297,6.566061104942424,-0.0015578457387164235,-0.012303832918405533,3.469865083694458
4.0,0.34145841002464294,0.08797231316566467,4.236324310302734,0.38329410552978516,1.9530748128890991,0.2898879051208496,1.973765091431554,0.05279759581015436,-0.020843507473072023,0.025087284968778076,6.9102911623863355,-0.001251746667549014,-0.006548011675477028,2.8588082790374756
4.1000000000000005,0.34145841002464294,0.08564142137765884,4.411724090576172,0.41049623489379883,1.9757639169692993,0.3017159700393677,1.9979876120679425,0.05216401247705241,-0.020812990421638783,0.024629661568008825,7.186922197440274,0.00015620607882738113,-0.0059385281056165695,2.8273377418518066
4.2,0.34145841002464294,0.08308964222669601,4.635833740234375,0.44629430770874023,2.001760721206665,0.31619417667388916,2.0259406341512225,0.05088505893922396,-0.0204162597251526,0.023625623624513287,7.537383027379423,0.0026691462844610214,-0.014455262571573257,3.3303802013397217
4.3,0.34145841002464294,0.08032356947660446,4.817718505859375,0.4761800765991211,2.0221190452575684,0.32770419120788574,2.047891876841308,0.049943276784563895,-0.020172113337576878,0.022942603195938133,7.808278662586082,0.0041710021905601025,-0.006021969951689243,3.2201104164123535
4.4,0.34145841002464294,0.07735032588243484,5.046131134033203,0.514678955078125,2.0480642318725586,0.3420392572879791,2.075852473304445,0.04893322468083877,-0.019653319190365726,0.022464490845953346,8.130884667030589,0.0030779859516769648,-0.0052092489786446095,2.6502866744995117
4.5,0.34145841002464294,0.0741775780916214,5.2298736572265625,0.5464448928833008,2.0680618286132812,0.35307183861732483,2.097442910402588,0.04767271540249196,-0.019256590065026523,0.02209566290989393,8.386416699360757,0.0058858636766672134,-0.0036305412650108337,2.5629239082336426
4.6000000000000005,0.34145841002464294,0.07081352919340134,5.4611663818359375,0.5873279571533203,2.092089891433716,0.36641016602516174,2.1234415757853307,0.045742735292452485,-0.018432613613956775,0.021617547560565834,8.700006499514046,0.0071578118950128555,-0.009657296352088451,3.047577381134033
4.7,0.34145841002464294,0.06726682931184769,5.64727783203125,0.6209230422973633,2.110872268676758,0.37669292092323303,2.1437647475577792,0.04418142676249648,-0.017883302599660558,0.021262377173860536,8.937476360707388,0.008563689887523651,-0.00396648608148098,2.851243495941162
4.800000000000001,0.34145841002464294,0.06354664266109467,5.889888763427734,0.6655187606811523,2.1314198970794678,0.38896164298057556,2.1662062522775187,0.04233686301776196,-0.01675415254079982,0.019855360683822404,9.22241197313063,0.01003467757254839,-0.03662668541073799,2.4367854595184326
4.9,0.34145841002464294,0.05966256186366081,6.080509185791016,0.701228141784668,2.1493706703186035,0.39859047532081604,2.1856397938132814,0.04058740127371008,-0.015991212366484153,0.01962996394602288,9.442017983920298,0.011603654362261295,0.006462481804192066,2.0969982147216797
5.0,0.34145841002464294,0.05562460422515869,6.3190155029296875,0.7465887069702148,2.1716983318328857,0.4099572002887726,2.2097273893623712,0.03799230522230823,-0.014739990011984441,0.019657287308034167,9.705077522307699,0.011677293106913567,-0.0031535762827843428,2.5515201091766357
5.1000000000000005,0.34145841002464294,0.051443178206682205,6.559055328369141,0.7929563522338867,2.1930885314941406,0.42097121477127075,2.2328357767053624,0.03603421848310212,-0.013671875375716699,0.01940456541346134,9.941383341395529,0.007609894964843988,-0.0022843966726213694,1.8483713865280151
5.2,0.34145841002464294,0.047129075974226,6.753986358642578,0.8311128616333008,2.208789110183716,0.4287102520465851,2.249756366673512,0.03373579831597373,-0.012725827801126837,0.01886498120835568,10.12502687033658,0.015155714936554432,-0.010339378379285336,1.8150447607040405
5.300000000000001,0.34145841002464294,0.04269341751933098,6.996318817138672,0.8790197372436523,2.22874116897583,0.43780580163002014,2.2711265659890603,0.030744747313863563,-0.01113891672109865,0.01848932290409744,10.337891801266304,0.01301416102796793,-0.00222733523696661,2.0179877281188965
5.4,0.34145841002464294,0.03814764693379402,7.247104644775391,0.9290838241577148,2.2469165325164795,0.4463261365890503,2.2906400319319142,0.02844588563127437,-0.009613038761872757,0.0174852837137824,10.523473848154003,0.01325197983533144,-0.012193616479635239,1.442689299583435
5.5,0.34145841002464294,0.033503491431474686,7.445579528808594,0.9690399169921875,2.2614002227783203,0.4520760774612427,2.3060008856509286,0.025761653124640238,-0.008392333376682087,0.01716426461579855,10.66490609878677,0.017442353069782257,0.002579212188720703,1.2341793775558472
5.6000000000000005,0.34145841002464294,0.02877292037010193,7.694915771484375,1.0194787979125977,2.27951979637146,0.45864957571029663,2.325095916806002,0.02233636050648974,-0.0064697254206105915,0.01685690429253323,10.825870909968458,0.016219621524214745,-0.003912174142897129,1.576898217201233
5.7,0.34145841002464294,0.02396814338862896,7.895107269287109,1.060150146484375,2.2938530445098877,0.4631214737892151,2.3400557996542592,0.019548498572548534,-0.005096435899812509,0.016576868084155788,10.935760380239048,0.022288575768470764,-0.004257455468177795,1.4440672397613525
5.800000000000001,0.34145841002464294,0.019101547077298164,8.146415710449219,1.1112537384033203,2.3113763332366943,0.4680708348751068,2.3582359485204054,0.016555102338849104,-0.0030212402350865302,0.01620803712188302,11.045787390118864,0.01796949841082096,-0.00598184484988451,0.7139109969139099
5.9,0.34145841002464294,0.014185686595737934,8.399768829345703,1.162851333618164,2.32792592048645,0.4719686508178711,2.3752522981175512,0.013039130140443334,-0.0011291505323427942,0.01568894251719121,11.146395555112898,0.017727911472320557,-0.0018795515643432736,1.0048048496246338
6.0,0.34145841002464294,0.00923323817551136,8.607192993164062,1.2050647735595703,2.3397157192230225,0.47384366393089294,2.387194345509644,0.010031021560173992,0.00030346277933396406,0.014937621964960469,11.208045207182945,0.022849299013614655,-0.012491609901189804,0.8614307045936584
6.1000000000000005,0.34145841002464294,0.004256976302713156,8.866628646850586,1.2576351165771484,2.354905843734741,0.4756014049053192,2.402442770778922,0.006852907123306662,0.0025740172582102965,0.014281924644122203,11.254545870694798,0.01940106973052025,-0.0006152015412226319,0.13605110347270966
6.2,0.34145841002464294,-0.0007302653975784779,9.124977111816406,1.3097457885742188,2.369657278060913,0.47629907727241516,2.4170488330076108,0.0033712511261315137,0.004615012713630216,0.013803811818386335,11.28505170263633,0.0167385246604681,0.01697777397930622,0.29727795720100403
6.300000000000001,0.34145841002464294,-0.005715623497962952,9.333612442016602,1.3515729904174805,2.3850769996643066,0.4764115512371063,2.4321924797195424,4.5558091634589903e-05,0.006277593692482862,0.014404867350072672,11.294910472550175,0.026242144405841827,-0.00472838943824172,0.25019532442092896
6.4,0.34145841002464294,-0.010686240158975124,9.598106384277344,1.404097557067871,2.4000346660614014,0.47534406185150146,2.446652354459227,-0.003260652245737683,0.00864063157345537,0.01381064111683706,11.279215749783011,0.021819861605763435,-0.009265173226594925,-0.5446984171867371
6.5,0.34145841002464294,-0.015629295259714127,9.806001663208008,1.4449853897094727,2.4120712280273438,0.4732813537120819,2.4580564163790615,-0.006442262537646348,0.010343728571785846,0.013639887266332631,11.251349500117419,0.0251785758882761,-0.005111957900226116,-0.6508826017379761
6.6000000000000005,0.34145841002464294,-0.020532039925456047,10.073869705200195,1.496983528137207,2.425401210784912,0.4695034921169281,2.4704035090539254,-0.010538730519343509,0.012920716967505201,0.012690491490850938,11.200101374721626,0.022429481148719788,-0.002539279405027628,-0.3890666961669922
6.7,0.34145841002464294,-0.02538182958960533,10.340768814086914,1.547989845275879,2.438551902770996,0.46515539288520813,2.4824829036324427,-0.01354825490144157,0.01498630316283722,0.01219871769961081,11.112163670976873,0.01927652768790722,-0.0024824452120810747,-1.087740421295166
6.800000000000001,0.34145841002464294,-0.030166156589984894,10.553915023803711,1.5881071090698242,2.449615001678467,0.4605730473995209,2.4924815056561584,-0.01664729410702115,0.016601491655385818,0.01198698211392075,11.031027015300351,0.02408246509730816,-0.0012892481172457337,-1.2406377792358398
6.9,0.34145841002464294,-0.03487268090248108,10.822576522827148,1.6377086639404297,2.4629318714141846,0.4538089632987976,2.504307077135614,-0.020543656115268538,0.019105039654664674,0.01162498249375246,10.909978125446534,0.022958626970648766,-0.003464892040938139,-1.0133765935897827
7.0,0.34145841002464294,-0.0394892618060112,11.092744827270508,1.686467170715332,2.475736618041992,0.4463376998901367,2.5155386427262765,-0.023547424658824423,0.021260654865720294,0.01122883064787826,10.756097088615384,0.01972629316151142,-0.004075877834111452,-1.6958118677139282
7.1000000000000005,0.34145841002464294,-0.04400399327278137,11.309228897094727,1.7246999740600586,2.486102819442749,0.43927109241485596,2.5244727993102782,-0.026521821488236452,0.02287900127597707,0.010989774022547982,10.622127206426821,0.02407471090555191,-0.004508020356297493,-1.8756451606750488
7.2,0.34145841002464294,-0.0484052337706089,11.584470748901367,1.7720613479614258,2.497424602508545,0.42918407917022705,2.5338535824158352,-0.030243047243917243,0.0253014896523257,0.010320416963383629,10.434897342915919,0.021099509671330452,-0.004979242105036974,-1.5764133930206299
7.300000000000001,0.34145841002464294,-0.05268162861466408,11.860023498535156,1.8180484771728516,2.5092990398406982,0.4186272621154785,2.5437644436327402,-0.03305920812067925,0.027320092894307823,0.009958415002289256,10.216031481647859,0.018897196277976036,-0.0052521852776408195,-2.3362650871276855
7.4,0.34145841002464294,-0.05682215094566345,12.080074310302734,1.853719711303711,2.518791675567627,0.40916571021080017,2.5515568564547526,-0.035856541938980746,0.028855318326688025,0.009801319539734886,10.031942908837358,0.02222256176173687,-0.005284576676785946,-2.418539524078369
7.5,0.34145841002464294,-0.060816120356321335,12.354961395263672,1.8968114852905273,2.5314440727233887,0.39666181802749634,2.562030251882277,-0.03937866995331624,0.031125888022237893,0.009780829878666183,9.786057062417202,0.021315835416316986,-0.0033687541726976633,-2.1785976886749268
7.6000000000000005,0.34145841002464294,-0.06465323269367218,12.632530212402344,1.9386444091796875,2.542125940322876,0.38334372639656067,2.570525098191543,-0.04192169602277729,0.03302708510205419,0.009364188613541987,9.509724762149979,0.017312413081526756,-0.004768399056047201,-2.783985137939453
7.7,0.34145841002464294,-0.06832360476255417,12.854133605957031,1.9708147048950195,2.5514450073242188,0.37189075350761414,2.5780223477609674,-0.044442461556178425,0.03442355236584366,0.009241244851025912,9.280480319877427,0.020593591034412384,-0.003959696274250746,-2.9253790378570557
7.800000000000001,0.34145841002464294,-0.07181774824857712,13.138519287109375,2.010369300842285,2.5605480670928955,0.3562262952327728,2.584772216107703,-0.04749913837223302,0.036425446915178544,0.008448943072021264,8.972994892607398,0.018123667687177658,-0.006429646629840136,-2.695272207260132
7.9,0.34145841002464294,-0.07512667030096054,13.41823959350586,2.0473594665527344,2.571643352508545,0.34061211347579956,2.593624111732174,-0.049800716755205976,0.0381002115811899,0.008435282598166186,8.644878561315839,0.015415831468999386,-0.0024844580329954624,-3.2674660682678223
8.0,0.34145841002464294,-0.07824182510375977,13.643001556396484,2.0756874084472656,2.5799636840820312,0.32725149393081665,2.600116105147882,-0.051984528589637535,0.039341605879451,0.008366980834049935,8.374360482817401,0.018053889274597168,-0.0055369664914906025,-3.4517719745635986
8.1,0.34145841002464294,-0.0811551883816719,13.924087524414062,2.109259605407715,2.5902953147888184,0.30988284945487976,2.6081907681525576,-0.05475504658888697,0.04112702370383479,0.008237207078305659,8.024663085576236,0.016516204923391342,-0.0021898795384913683,-3.050759792327881
8.200000000000001,0.34145841002464294,-0.08385923504829407,14.207672119140625,2.1410322189331055,2.5996007919311523,0.29207560420036316,2.61534517087236,-0.056586863958960676,0.04255041167353214,0.007936679994872993,7.650012803580218,0.013240695931017399,-0.005355011206120253,-3.7618327140808105
8.3,0.34145841002464294,-0.08634699881076813,14.433614730834961,2.164830207824707,2.60711669921875,0.27721449732780457,2.6211627135347215,-0.058407106153886834,0.04358925127059705,0.007820565727546061,7.345954962590154,0.014814442954957485,-0.005662804935127497,-3.726679563522339
8.4,0.34145841002464294,-0.08861205726861954,14.724918365478516,2.1934518814086914,2.6140856742858887,0.2574830949306488,2.62603819498408,-0.06053804726393475,0.04494819477700762,0.006980452727680953,6.9459989735805205,0.012582458555698395,-0.008784680627286434,-3.5543460845947266
8.5,0.34145841002464294,-0.0906485766172409,14.952856063842773,2.214226722717285,2.621342658996582,0.24171233177185059,2.6317289640602928,-0.06216789309599863,0.045875201415386785,0.00696679314620473,6.62152471726511,0.014196564443409443,-0.0006397250690497458,-3.499518632888794
8.6,0.34145841002464294,-0.0924513041973114,15.238912582397461,2.238213539123535,2.6298887729644775,0.2217555046081543,2.6384563862221464,-0.06354809196344169,0.0470947525195155,0.006973623472839486,6.199571063378933,0.010366672649979591,-0.0036100682336837053,-4.018223762512207
8.700000000000001,0.34145841002464294,-0.09401557594537735,15.527061462402344,2.2600889205932617,2.6375741958618164,0.20124779641628265,2.644436832918208,-0.06520851895291854,0.0480238870333565,0.006789207265725589,5.775789418153681,0.009235778823494911,-0.002830338664352894,-3.7523012161254883
8.8,0.34145841002464294,-0.09533737599849701,15.75741195678711,2.2758941650390625,2.6436305046081543,0.18460063636302948,2.649238397461324,-0.06629896874730673,0.048623038902486565,0.006673094114275088,5.427958111627665,0.009663458913564682,-0.0028890878893435,-3.770383358001709
8.9,0.34145841002464294,-0.0964132770895958,16.046709060668945,2.2935895919799805,2.650460958480835,0.1635865569114685,2.654657183519749,-0.06707527130238713,0.049382879468200865,0.006434037226979267,4.979203242882669,0.006178156938403845,-0.006687397602945566,-4.213962078094482
9.0,0.34145841002464294,-0.09724052250385284,16.341821670532227,2.309231758117676,2.6557247638702393,0.14182792603969574,2.658634852282154,-0.06819020654763241,0.04987261050333105,0.005826150035827998,4.5261875706856,0.0061171031557023525,-0.0018695252947509289,-3.935481309890747
9.1,0.34145841002464294,-0.09781696647405624,16.575231552124023,2.319852828979492,2.6609084606170654,0.12458516657352448,2.662934155346192,-0.06882574957309817,0.05022355585862574,0.005819320619991983,4.161189068295011,0.005901312921196222,-0.0029254495166242123,-4.058391571044922
9.200000000000001,0.34145841002464294,-0.0981411263346672,16.866323471069336,2.330925941467285,2.6668291091918945,0.10315767675638199,2.667929964110449,-0.06905585064734514,0.050588130334459344,0.005771508619838129,3.697892569146342,0.0025576131884008646,-0.006029308307915926,-4.377614974975586
9.3,0.34145841002464294,-0.09821216762065887,17.159841537475586,2.339710235595703,2.672346830368042,0.08140245079994202,2.672678354582294,-0.06967319227392003,0.05078132815625902,0.0056212449509314855,3.2380362914474383,0.0025012660771608353,-0.003941484726965427,-4.090582370758057
9.4,0.34145841002464294,-0.09802990406751633,17.39372444152832,2.344985008239746,2.6764674186706543,0.06417327374219894,2.6763271894040814,-0.06977698420538632,0.050827841627624874,0.005518791882998557,2.8669820449674157,0.0016354930121451616,-0.00194383948110044,-3.9459729194641113
9.5,0.34145841002464294,-0.09759481251239777,17.688289642333984,2.349477767944336,2.681317090988159,0.04273999109864235,2.6807582860397203,-0.06944826199192064,0.050755391933469146,0.005389018254397038,2.3971970782535013,-0.0017088187159970403,-0.007527881767600775,-4.217584133148193
9.600000000000001,0.34145841002464294,-0.09690800309181213,17.93020248413086,2.3514232635498047,2.682758331298828,0.025313671678304672,2.6819871383523104,-0.06912333788161742,0.05045985142882358,0.004719660649726628,2.0169766926111254,-0.003429828677326441,-0.007305730599910021,-4.410876750946045
9.700000000000001,0.34145841002464294,-0.0959712490439415,18.225616455078125,2.351677894592285,2.6877784729003906,0.003976324573159218,2.6868927936387688,-0.06910894324124628,0.05015704103714378,0.004897245252048423,1.5581303904444088,-0.0021407243330031633,-0.0013305676402524114,-4.0090179443359375
9.8,0.34145841002464294,-0.09478697925806046,18.522186279296875,2.349599838256836,2.691455602645874,-0.01690801978111267,2.6906446402424726,-0.06819502973999415,0.04970863948208349,0.004835773363804904,1.0919307118229193,-0.004258251748979092,-0.004308253992348909,-4.269863128662109
9.9,0.34145841002464294,-0.09335823357105255,18.76047134399414,2.346311569213867,2.6941092014312744,-0.033278848975896835,2.6934703455299553,-0.0674490087144607,0.04916603709023378,0.0047538113905049315,0.7267752319282583,-0.006333186291158199,-0.004675378557294607,-4.3567633628845215
10.0,0.34145841002464294,-0.09168870747089386,19.057559967041016,2.3402137756347656,2.697741985321045,-0.05359489843249321,2.6974458114558333,-0.06686050225135809,0.04847816302041469,0.00475381069991888,0.2817553747762851,-0.005829926114529371,-0.001394078484736383,-3.828903913497925
10.100000000000001,0.34145841002464294,-0.0897827073931694,19.296829223632812,2.333711624145508,2.699906826019287,-0.06936810165643692,2.6999961708798987,-0.06579878377935491,0.047824088144322645,0.00462403768781861,-0.07574462742411872,-0.00848833005875349,-0.003900636453181505,-3.619044780731201
10.200000000000001,0.34145841002464294,-0.08764513581991196,19.599584579467773,2.323544502258301,2.7011210918426514,-0.08879376202821732,2.7018201704667315,-0.06408784152615465,0.046672142931743155,0.004166415159578243,-0.5239868579311295,-0.009090647101402283,-0.0017512972699478269,-4.030859470367432
10.3,0.34145841002464294,-0.08528152108192444,19.838703155517578,2.3140087127685547,2.7036209106445312,-0.10372330248355865,2.7048811028838005,-0.06279148998529868,0.04587709378458756,0.004309849345834091,-0.867218067105502,-0.012255342677235603,-0.0025946178939193487,-4.002839088439941
10.4,0.34145841002464294,-0.08269794285297394,20.137195587158203,2.3003644943237305,2.7064568996429443,-0.12183677405118942,2.7085012541350006,-0.061433748747953675,0.044556351307067345,0.004425962196710656,-1.2781982011338802,-0.010993869043886662,0.0006747692241333425,-3.4800021648406982
10.5,0.34145841002464294,-0.0799010843038559,20.436046600341797,2.2847671508789062,2.7086827754974365,-0.13917121291160583,2.711606791941037,-0.05932630680417324,0.043223299562811485,0.004419131716542439,-1.6878970102102637,-0.01225891150534153,-0.003987157717347145,-3.6960806846618652
10.600000000000001,0.34145841002464294,-0.07689814269542694,20.682403564453125,2.2705307006835938,2.7088496685028076,-0.1525769978761673,2.712538121005407,-0.057299292501136176,0.0420311465950037,0.003934188501374068,-2.0136720310252727,-0.021454254165291786,-0.01608860306441784,-4.419685363769531
10.700000000000001,0.34145841002464294,-0.07369687408208847,20.98115348815918,2.251728057861328,2.7117602825164795,-0.1686713993549347,2.7164321370932543,-0.055590604972278246,0.04041771621701426,0.004180075658828956,-2.3868406832227453,-0.01643536612391472,-0.012447384186089039,-3.316084861755371
10.8,0.34145841002464294,-0.07030552625656128,21.22221565246582,2.2353382110595703,2.7123706340789795,-0.1806703507900238,2.717853048239296,-0.05358209071099779,0.0390893659277974,0.003927358127252952,-2.6813966825447504,-0.017496401444077492,0.0019471399718895555,-3.0183629989624023
10.9,0.34145841002464294,-0.06673285365104675,21.521751403808594,2.2136011123657227,2.7145042419433594,-0.19475877285003662,2.7210084887751167,-0.05076478251997102,0.03711556655251729,0.004111773715726004,-3.0349735744268442,-0.01672227308154106,-0.0016943712253123522,-3.059648036956787
11.0,0.34145841002464294,-0.06298806518316269,21.76679039001465,2.194734573364258,2.714444637298584,-0.2053695023059845,2.721771585060022,-0.048433048596034506,0.03556919517951603,0.003742943202868635,-3.3071899294346703,-0.020702816545963287,-0.0009875991381704807,-3.051017999649048
11.100000000000001,0.34145841002464294,-0.059080820530653,22.067453384399414,2.1704139709472656,2.716709613800049,-0.2178320437669754,2.7250414724572387,-0.04594451429050586,0.0333904626080535,0.003981999675928621,-3.6183781461325304,-0.01772461086511612,0.0015167793026193976,-2.4470245838165283
11.200000000000001,0.34145841002464294,-0.05502120032906532,22.373117446899414,2.14437198638916,2.716996431350708,-0.22937995195388794,2.7263255600360643,-0.04282185218893325,0.03132834322304263,0.0037019616248147764,-3.9258414328519504,-0.018716152757406235,0.0003077281580772251,-2.833446502685547
11.3,0.34145841002464294,-0.05081966891884804,22.619606018066406,2.1225032806396484,2.7174160480499268,-0.23758018016815186,2.7274890256426545,-0.039974181753933136,0.029686259686473378,0.0035516979716725045,-4.156922020150153,-0.026905857026576996,-0.015939705073833466,-2.891535997390747
11.4,0.34145841002464294,-0.04648707062005997,22.928733825683594,2.094165802001953,2.716871976852417,-0.2473328709602356,2.727853145667282,-0.03720353930082923,0.027287045942258514,0.0031213967094561156,-4.420260549470379,-0.01908697374165058,0.005246864631772041,-2.050823450088501
11.5,0.34145841002464294,-0.0420345701277256,23.168657302856445,2.071563720703125,2.7193853855133057,-0.2535437345504761,2.7309647344524777,-0.03424791161606014,0.025202234526842667,0.003674641497291687,-4.608126525018823,-0.02158605307340622,0.005370286293327808,-1.849881887435913
11.600000000000001,0.34145841002464294,-0.037473659962415695,23.468902587890625,2.0425586700439453,2.721442222595215,-0.260788232088089,2.733735359242035,-0.030810039750598595,0.022873969147322478,0.003947849331941548,-4.82806715175418,-0.021069319918751717,0.0013539365027099848,-1.9918431043624878
11.700000000000001,0.34145841002464294,-0.032816097140312195,23.709491729736328,2.01883602142334,2.7233388423919678,-0.2654983103275299,2.7361086301780495,-0.02780947918955362,0.021049768835360257,0.004077622689491115,-4.985842288969142,-0.027139728888869286,-0.0006917794235050678,-1.8829678297042847
11.8,0.34145841002464294,-0.028073899447917938,24.01275634765625,1.988541603088379,2.724608898162842,-0.2704119384288788,2.73788532417128,-0.024499307756050748,0.018260268045225743,0.003906867802030123,-5.15524538638368,-0.024404922500252724,-0.0013490127166733146,-1.2836321592330933
11.9,0.34145841002464294,-0.023259293287992477,24.256982803344727,1.9638280868530273,2.7255797386169434,-0.2732294499874115,2.7391571767669363,-0.021382349398876344,0.016227221538404352,0.0037361131751863057,-5.277316488149772,-0.02903190441429615,-0.008167474530637264,-1.070356845855713
12.0,0.34145841002464294,-0.018384696915745735,24.559027671813965,1.9330816268920898,2.7269511222839355,-0.2756267488002777,2.740790380215065,-0.017338388056140908,0.01331750309173028,0.003640490422253396,-5.4091218068867795,-0.02579186111688614,0.0025075592566281557,-1.2409805059432983
12.100000000000001,0.34145841002464294,-0.013462685979902744,24.859479904174805,1.9023752212524414,2.7294273376464844,-0.2772911489009857,2.743440475016122,-0.01408306763878947,0.010770592963271507,0.0038590564780687313,-5.506839111158598,-0.022964119911193848,0.0017374336021021008,-0.6287142634391785
12.200000000000001,0.34145841002464294,-0.00850595161318779,25.100078582763672,1.8777551651000977,2.7310757637023926,-0.27730104327201843,2.7450963599387137,-0.010801404241117307,0.008815837745530696,0.003886376955462005,-5.5722381073087215,-0.027829647064208984,0.0005525100277736783,-0.42984461784362793
12.3,0.34145841002464294,-0.003527279244735837,25.39959144592285,1.8472938537597656,2.7337234020233154,-0.27618536353111267,2.747631254968637,-0.006669371650786737,0.0058763765321827805,0.00398883057435202,-5.6298865089336925,-0.026876753196120262,0.002087096683681011,-0.5739347338676453
12.4,0.34145841002464294,0.0014604903990402818,25.641282081604004,1.8229045867919922,2.7346949577331543,-0.2741405665874481,2.748399193936357,-0.003381252728060613,0.003707670531280284,0.0037907551530706393,-5.654024668755666,-0.03018840402364731,-0.0009673211025074124,-0.35714223980903625
12.5,0.34145841002464294,0.006444493308663368,25.94668483734131,1.7925424575805664,2.735952377319336,-0.2706000506877899,2.749301667581552,0.0003728603767401695,0.0005934551440055595,0.003483396304457455,-5.656253299605143,-0.025226470082998276,-0.00722257886081934,0.2622930109500885
12.600000000000001,0.34145841002464294,0.011411874555051327,26.249969482421875,1.762883186340332,2.7378649711608887,-0.26612207293510437,2.7507647559407213,0.004337682269787424,-0.002014160169037552,0.0033672831693170205,-5.64209250361896,-0.02507123164832592,0.0006207331898622215,0.07527077198028564
12.700000000000001,0.34145841002464294,0.016349824145436287,26.490388870239258,1.7398262023925781,2.7399258613586426,-0.26144939661026,2.7523610021626217,0.007643723185446816,-0.003936766683609206,0.0034833959907986105,-5.609896706170966,-0.028385113924741745,0.003004162572324276,0.27968254685401917
12.8,0.34145841002464294,0.021245604380965233,26.792682647705078,1.7116327285766602,2.742234706878662,-0.25456106662750244,2.75400185738435,0.011238050363947094,-0.006866454473228453,0.003524378042317596,-5.537357010453811,-0.02651047892868519,-0.0004233364015817642,0.932791531085968
12.9,0.34145841002464294,0.026086587458848953,27.033453941345215,1.6898021697998047,2.7440242767333984,-0.24799184501171112,2.75516925774782,0.014544677923203797,-0.00891113177188136,0.0035107170661870324,-5.466555115565669,-0.02772204764187336,0.00014001221279613674,1.0896166563034058
13.0,0.34145841002464294,0.03086029179394245,27.33450698852539,1.6634941101074219,2.746701955795288,-0.2387712448835373,2.7569975589813978,0.018649426894871424,-0.011871339132926121,0.003544867929674299,-5.355807240564049,-0.02643616311252117,0.0004226739110890776,0.9592878222465515
13.100000000000001,0.34145841002464294,0.03555440157651901,27.646244049072266,1.6374664306640625,2.7463574409484863,-0.22841332852840424,2.7557541096328593,0.021705514141600324,-0.014373778893940483,0.0028140378979449516,-5.205599589053693,-0.023682979866862297,-0.016303129494190216,1.8430923223495483
13.200000000000001,0.34145841002464294,0.040156811475753784,27.884538650512695,1.6184453964233398,2.7491726875305176,-0.2192756086587906,2.757790468179907,0.024979832515502454,-0.016235351224753083,0.0030735851364195746,-5.079256618581968,-0.027925102040171623,0.0020014981273561716,1.729848027229309
13.3,0.34145841002464294,0.04465565085411072,28.18583393096924,1.595686912536621,2.7520415782928467,-0.20691174268722534,2.759657555447568,0.028904923033958946,-0.0189514136377976,0.003271660561557158,-4.899782843287927,-0.0235659871250391,0.0022623275872319937,1.5701638460159302
13.4,0.34145841002464294,0.049039315432310104,28.488525390625,1.5743122100830078,2.7541182041168213,-0.19384844601154327,2.7607474149441966,0.031906318303605324,-0.021270751773149327,0.0032375095184519727,-4.688265598899472,-0.020998600870370865,-0.0017409835709258914,2.172494411468506
13.5,0.34145841002464294,0.05329650267958641,28.730345726013184,1.5583486557006836,2.755765676498413,-0.18233096599578857,2.7615712953528297,0.03482851720944624,-0.02297973320549935,0.003176038225604377,-4.507936642132264,-0.023791979998350143,-0.0021751541644334793,2.316256284713745
13.600000000000001,0.34145841002464294,0.05741623044013977,29.032572746276855,1.5399713516235352,2.7573912143707275,-0.16701453924179077,2.7621785308442304,0.03833965506147072,-0.02545166345350843,0.0029916230087755286,-4.2613844604806115,-0.020981663838028908,0.0034568030387163162,2.0346837043762207
13.700000000000001,0.34145841002464294,0.06138787046074867,29.27764320373535,1.5263671875,2.759188413619995,-0.15389224886894226,2.7631707145286883,0.04112333264442078,-0.027191163672652525,0.003005283255366035,-4.044984488665232,-0.02489926852285862,-0.003560873679816723,2.309784412384033
13.8,0.34145841002464294,0.06520118564367294,29.581686973571777,1.5112581253051758,2.7604782581329346,-0.13689115643501282,2.7635197541901872,0.04402238675222814,-0.029541017652336632,0.0028003773317158112,-3.7515867395058766,-0.019586997106671333,-0.002077970188111067,2.824244976043701
13.9,0.34145841002464294,0.06884633749723434,29.88219165802002,1.4982433319091797,2.763395071029663,-0.11940586566925049,2.7655725604953507,0.04710087029398648,-0.031524657024837026,0.0030599244457034393,-3.4499209783368596,-0.018703145906329155,-0.0002190823433920741,2.720876932144165
14.0,0.34145841002464294,0.07231391966342926,30.121703147888184,1.4892969131469727,2.7656304836273193,-0.10469245910644531,2.767167271312679,0.04957595726132004,-0.03292846156394524,0.003217018457879901,-3.1942753243788125,-0.021128101274371147,-6.817890971433371e-05,2.8405346870422363
14.100000000000001,0.34145841002464294,0.07559499889612198,30.422189712524414,1.480006217956543,2.7674520015716553,-0.08570662140846252,2.7682903233721214,0.05200857122137051,-0.034912108913611815,0.0031555474813511437,-2.850158723261016,-0.0172443725168705,-0.0036827835720032454,3.4337849617004395
14.200000000000001,0.34145841002464294,0.0786811038851738,30.72200870513916,1.4728517532348633,2.769500970840454,-0.06610172241926193,2.769749356867126,0.05471348396101253,-0.03659057770931632,0.003148716856176793,-2.498931689139958,-0.015514795668423176,-0.0010667375754565,3.1367549896240234
14.3,0.34145841002464294,0.0815642774105072,30.968567848205566,1.4686059951782227,2.7691619396209717,-0.04952950030565262,2.7690259286733028,0.05662530866018449,-0.037719729677044594,0.0026842640530942478,-2.196197731008264,-0.017216427251696587,-0.00988246314227581,3.414104461669922
14.4,0.34145841002464294,0.08423709124326706,31.268571853637695,1.4655494689941406,2.7704927921295166,-0.02866356261074543,2.770018686918897,0.05872295278044008,-0.03933715654204431,0.002650113184078473,-1.8072206584512884,-0.014242080971598625,-0.0006781434640288353,3.7396042346954346
14.5,0.34145841002464294,0.08669263869524002,31.569103240966797,1.4647865295410156,2.772326707839966,-0.007356823887676001,2.7716655080639425,0.0609902391300823,-0.040740967730539354,0.0028481887647665454,-1.4126282038200741,-0.0127866817638278,-0.0006410785135813057,3.547692060470581
14.600000000000001,0.34145841002464294,0.0889245942234993,31.809439659118652,1.4658746719360352,2.7732110023498535,0.010101505555212498,2.7725223062391717,0.06262080624668993,-0.041687016375090494,0.00286184920314074,-1.0851745484015412,-0.01442739274352789,-0.0017379190539941192,3.7029967308044434
14.700000000000001,0.34145841002464294,0.09092719852924347,32.11254596710205,1.4694890975952148,2.7735402584075928,0.032342713326215744,2.772990455492817,0.06399648317444794,-0.04290772289764895,0.0026637738062957215,-0.6539611235954066,-0.01027804333716631,-0.004911176860332489,4.4077019691467285
14.8,0.34145841002464294,0.09269529581069946,32.411683082580566,1.4754705429077148,2.7744545936584473,0.05483606085181236,2.774214769812196,0.06586119341514214,-0.04397583117508583,0.0027457359077514643,-0.2276916109936168,-0.00979157630354166,-0.0007091162842698395,3.727073907852173
14.9,0.34145841002464294,0.09422431141138077,32.65738487243652,1.4822092056274414,2.773358106613159,0.07329827547073364,2.7735189289840054,0.06693709936443921,-0.04455566528486237,0.0023769057210313283,0.13141390426123856,-0.008634991012513638,-0.004982576705515385,3.969339370727539
15.0,0.34145841002464294,0.09551031142473221,32.95657920837402,1.492696762084961,2.7740986347198486,0.09617730230093002,2.7749320470390555,0.06801060908453595,-0.04541015858797575,0.002527169911745627,0.5816579062328443,-0.0072016469202935696,-0.0019058227771893144,4.383756637573242
15.100000000000001,0.34145841002464294,0.09654997289180756,33.25718450546265,1.5057182312011719,2.7741951942443848,0.11927226930856705,2.7758944772671197,0.0692437800279564,-0.04602049941476039,0.0026023018101699637,1.0328999458907506,-0.005820136051625013,-0.001995779573917389,4.055363178253174
15.200000000000001,0.34145841002464294,0.09734062105417252,33.55820035934448,1.5212926864624023,2.7736446857452393,0.14228639006614685,2.776416548059557,0.0697238210507392,-0.04638671885759301,0.00252716973446874,1.4981067472874645,-0.0016141349915415049,-0.005876472685486078,4.5209197998046875
15.3,0.34145841002464294,0.09788021445274353,33.79988765716553,1.535618782043457,2.7728099822998047,0.16087333858013153,2.776584959682374,0.0702238611370017,-0.04660034883684542,0.002411056550377886,1.8716889459273391,-0.0015541926259174943,-0.008175812661647797,4.40116024017334
15.4,0.34145841002464294,0.09816735237836838,34.105679512023926,1.5560617446899414,2.7710461616516113,0.18436168134212494,2.776264297890916,0.07101132168662905,-0.04672242065589591,0.00206271699512924,2.3411682544192773,-0.0027670576237142086,0.005335648078471422,3.907898187637329
15.5,0.34145841002464294,0.09820131212472916,34.36047554016113,1.575087547302246,2.7674498558044434,0.20338982343673706,2.7740089366898224,0.07085579605553016,-0.046600352054901574,0.0014958115088386193,2.7401423713769755,0.001182636129669845,-0.014027399942278862,4.109651565551758
15.600000000000001,0.34145841002464294,0.09798198938369751,34.648075103759766,1.5986528396606445,2.7567315101623535,0.22315366566181183,2.7648738790125145,0.06956012345162729,-0.04565429376701258,-0.0006761888277325024,3.186751805740071,0.012876257300376892,-0.019745130091905594,4.144773006439209
15.700000000000001,0.34145841002464294,0.0975099578499794,34.92304086685181,1.6232681274414062,2.752434015274048,0.24389523267745972,2.762342278331048,0.06959188390355059,-0.04516601589826719,-0.0007923021360656778,3.6206446664499676,5.643898111884482e-05,0.0019206360448151827,4.091515064239502
15.8,0.34145841002464294,0.09678643941879272,35.25928354263306,1.6562280654907227,2.747297525405884,0.26890280842781067,2.759558495979851,0.06920491851797012,-0.04513550929060433,-0.0005190942318309174,4.153671233553927,-0.0027132488321512938,0.01026526652276516,4.575727462768555
15.9,0.34145841002464294,0.09581328928470612,35.500511169433594,1.681807518005371,2.7498457431793213,0.287798672914505,2.7639862990338155,0.06970958446393632,-0.04562377989657868,0.001290905645007953,4.53008873481227,-0.002887530019506812,0.01424720324575901,4.437657833099365
16.0,0.34145841002464294,0.09459301829338074,35.80127286911011,1.7158746719360352,2.7512543201446533,0.3100878596305847,2.7678003616373656,0.06954115993398158,-0.04547118745765593,0.0026227922372848394,4.991287200890282,0.0025980412028729916,0.006747648119926453,4.057268142700195
16.1,0.34145841002464294,0.09312878549098969,36.04400587081909,1.745100975036621,2.750957489013672,0.3273303806781769,2.76950881819163,0.06879818627062373,-0.044921869381830105,0.0029506414397438047,5.362586374980239,0.008580746129155159,-0.002932325005531311,3.740023136138916
16.2,0.34145841002464294,0.0914243534207344,36.31772804260254,1.779810905456543,2.7416231632232666,0.34445732831954956,2.7623699967156785,0.06678638634045975,-0.0433960019080519,0.000949396059151665,5.776132415437053,0.0158205758780241,-0.017369210720062256,3.7969748973846436
16.3,0.34145841002464294,0.08948413282632828,36.58954358100891,1.8160934448242188,2.735898017883301,0.3621963560581207,2.75898857939274,0.06562151613598383,-0.04202270570598682,0.00011611300325162941,6.1788410032137415,0.016049301251769066,-0.007856299169361591,4.178114414215088
16.400000000000002,0.34145841002464294,0.08731311559677124,36.91193985939026,1.8614826202392578,2.7321553230285645,0.3832329213619232,2.758161783549969,0.06390427946050631,-0.04083252276676534,0.0005054340140795335,6.657391143058129,0.01019222941249609,-0.006074610631912947,3.8849170207977295
16.5,0.34145841002464294,0.08491690456867218,37.18811225891113,1.9022998809814453,2.725431442260742,0.3996395766735077,2.75387677561321,0.062056767926135126,-0.0395813038656375,-9.562259850500071e-05,7.051128277370509,0.01801350899040699,-0.011489229276776314,4.547041893005371
16.6,0.34145841002464294,0.08230167627334595,37.44097685813904,1.9411993026733398,2.724442958831787,0.4156877100467682,2.7552947618822445,0.06112678100712399,-0.03866576887261244,0.0007786413764679306,7.40421047827387,0.010537238791584969,0.012538310140371323,3.808525562286377
16.7,0.34145841002464294,0.07947418093681335,37.69553327560425,1.9817934036254883,2.7226037979125977,0.4304180145263672,2.7557781078882386,0.059313807168652755,-0.037567135239040345,0.0013728678730114538,7.7505628190560065,0.015792572870850563,-0.0037686750292778015,3.6630055904388428
16.8,0.34145841002464294,0.07644171267747879,38.0194616317749,2.0353546142578125,2.7179999351501465,0.4482738673686981,2.75411988874627,0.05741729751671065,-0.035614007985812886,0.0012021127970672748,8.171043300634977,0.013309706002473831,0.007278983481228352,3.2215240001678467
16.900000000000002,0.34145841002464294,0.07321208715438843,38.27167844772339,2.078563690185547,2.716752290725708,0.46187758445739746,2.75517265895335,0.05565547182003233,-0.0343933100733982,0.0016938867006726615,8.491416163695938,0.017149977385997772,0.004924724344164133,3.17099666595459
17.0,0.34145841002464294,0.06979364156723022,38.51925718784332,2.122136116027832,2.7161848545074463,0.4744308292865753,2.756786941453547,0.05357737455664002,-0.03289794848865406,0.0022198110994621984,8.794405586896016,0.018565449863672256,0.004767711739987135,2.8589022159576416
17.1,0.34145841002464294,0.06619518995285034,38.796252489089966,2.1721296310424805,2.708530902862549,0.48574724793434143,2.7512790738846533,0.0505321505737274,-0.03060912597619402,0.0008332827912148948,9.115106094098145,0.02871132828295231,-0.020838214084506035,2.86877179145813
17.2,0.34145841002464294,0.06242600455880165,39.137176871299744,2.235386848449707,2.7043285369873047,0.5006568431854248,2.749875204696458,0.0472913225434185,-0.027923583081227908,0.0008469433964387848,9.503257939772196,0.015839744359254837,0.010245444253087044,3.2999227046966553
17.3,0.34145841002464294,0.058495812118053436,39.378740549087524,2.2813711166381836,2.70646595954895,0.5117207765579224,2.754040272008527,0.04558863359939891,-0.02694702230280633,0.0023222646869623356,9.7583677106359,0.016721388325095177,0.016509132459759712,2.96663498878479
17.400000000000002,0.34145841002464294,0.05441475659608841,39.67638176679611,2.339137077331543,2.7094438076019287,0.5238767266273499,2.7592892710247487,0.04307307815718148,-0.025054929093890062,0.0037224524433446724,10.048897104358362,0.020307866856455803,0.0034387537743896246,2.6170389652252197
17.5,0.34145841002464294,0.05019335076212883,39.9685720205307,2.3969802856445312,2.7113914489746094,0.5344880819320679,2.763281843283253,0.0399318654856094,-0.022918701390887624,0.0043235097006402235,10.323641016177236,0.02076217718422413,0.00115190667565912,2.5925893783569336
17.6,0.34145841002464294,0.045842494815588,40.20440196990967,2.44439697265625,2.7122204303741455,0.5418838858604431,2.7655731850860046,0.037185570149994185,-0.02114868280365173,0.0043713207676734705,10.528207073869462,0.026462847366929054,-0.002156126080080867,2.439542770385742
17.7,0.34145841002464294,0.04137340188026428,40.50511797890067,2.505600929260254,2.7112035751342773,0.5499159097671509,2.766203271112899,0.03393812782428307,-0.01837158082868192,0.0038385663300636677,10.762890479432674,0.023203713819384575,-0.00980053935199976,1.8322043418884277
17.8,0.34145841002464294,0.036797598004341125,40.74433891475201,2.554889678955078,2.7109899520874023,0.5555303692817688,2.767149123322141,0.031084414273101824,-0.016448975901165185,0.00351071717571518,10.937014199056765,0.02604515291750431,-0.0017104485305026174,1.6664944887161255
17.900000000000002,0.34145841002464294,0.03212689235806465,41.04318195581436,2.616997718811035,2.7103817462921143,0.5612362623214722,2.7677445702084937,0.027301041362319367,-0.013610839156400975,0.003223848756047596,11.13370094792628,0.02365570142865181,0.0020833497401326895,1.7620201110839844
18.0,0.34145841002464294,0.02737332321703434,41.33964818716049,2.6791200637817383,2.7115397453308105,0.5663585066795349,2.769950525712845,0.024162650932427088,-0.011077880169043037,0.0034355845851224936,11.29795313206671,0.023812981322407722,0.0006976914592087269,1.2714093923568726
18.1,0.34145841002464294,0.022549156099557877,41.633941292762756,2.741194725036621,2.712415933609009,0.5700781941413879,2.7716008425040575,0.020447840040860088,-0.008636473340710304,0.003497056570074105,11.446605387709612,0.02375410869717598,0.00010371587995905429,1.3940109014511108
18.2,0.34145841002464294,0.017666831612586975,41.875234603881836,2.7921876907348633,2.7121026515960693,0.5712015628814697,2.77154947681852,0.016897212185815302,-0.006134032827616823,0.003176037579712501,11.544054059938865,0.02758592553436756,-0.008799751289188862,1.2543630599975586
18.3,0.34145841002464294,0.012738941237330437,42.17014670372009,2.8546266555786133,2.7132256031036377,0.5727420449256897,2.772984134127673,0.013624068370268527,-0.003540038777208649,0.0031760377681188797,11.638227073130498,0.02400079555809498,0.002809403231367469,0.6231395602226257
18.400000000000002,0.34145841002464294,0.007778194732964039,42.41162836551666,2.9057674407958984,2.7130212783813477,0.5724331140518188,2.7727347503974515,0.010301987740556351,-0.0014953614611076045,0.0029233208680217978,11.701473917574006,0.02729722298681736,-0.005818556062877178,0.3944641947746277
18.5,0.34145841002464294,0.0027973875403404236,42.70866012573242,2.9684762954711914,2.714364767074585,0.5712190866470337,2.7738113764282506,0.00614668064492252,0.001492519034968002,0.0029233206805645943,11.757121882489379,0.027366481721401215,0.0012686781119555235,0.5533348321914673
18.6,0.34145841002464294,-0.002190634608268738,43.00463128089905,3.030670166015625,2.7157225608825684,0.5691227316856384,2.774714843120949,0.0026927257912537916,0.004164148566814632,0.0029847926482802203,11.780350483775024,0.02349843829870224,0.0028072334825992584,-0.027351094409823418
18.7,0.34145841002464294,-0.007173006888478994,43.24710774421692,3.081338882446289,2.716317653656006,0.5660332441329956,2.7746666222526013,-0.0006036425542499391,0.0062219531016700904,0.00280037736925979,11.783457401081725,0.0295240581035614,-0.006514356471598148,-0.28761032223701477
18.8,0.34145841002464294,-0.012136878445744514,43.54376459121704,3.1427650451660156,2.7182986736297607,0.5612302422523499,2.7756267186993933,-0.004835526650533106,0.009248937303782212,0.0028345284107429104,11.765406548978765,0.02733094058930874,0.002460657386109233,-0.1252443790435791
18.900000000000002,0.34145841002464294,-0.01706944778561592,43.83982753753662,3.203378677368164,2.720623731613159,0.5557015538215637,2.7767839717638596,-0.008275269889033043,0.011934371684562768,0.0029916228091008768,11.714917845373774,0.024062659591436386,0.0023572109639644623,-0.6940425634384155
19.0,0.34145841002464294,-0.021957991644740105,44.0817666053772,3.252237319946289,2.7216079235076904,0.5492677092552185,2.7764555121489227,-0.01181079117503292,0.014479064972591727,0.0027525658823720077,11.653748828228705,0.025794265791773796,-0.004214114043861628,-0.944467306137085
19.1,0.34145841002464294,-0.02678990364074707,44.38147234916687,3.311939239501953,2.723649263381958,0.541166365146637,2.7768469085199388,-0.015735035124351926,0.01709610092392573,0.0026569434263870014,11.562498330292945,0.02477467618882656,0.00039503638981841505,-0.7974762916564941
19.200000000000003,0.34145841002464294,-0.031552720814943314,44.62309789657593,3.359311103820801,2.724839925765991,0.5335077047348022,2.7765130387171335,-0.018932456088879834,0.019002905519393234,0.0024930192084940263,11.468718602410005,0.02774348482489586,-0.0018529186490923166,-0.9633669853210449
19.3,0.34145841002464294,-0.036234159022569656,44.92284822463989,3.4169187545776367,2.7274975776672363,0.523207426071167,2.7771362395285926,-0.022435551556542643,0.021803993562561515,0.0025476605656654517,11.321823476595156,0.024772504344582558,0.0012634876184165478,-1.5875036716461182
19.400000000000002,0.34145841002464294,-0.040822140872478485,45.22171497344971,3.473080635070801,2.730494737625122,0.5119921565055847,2.7779583682120528,-0.026168397015323697,0.024293154003495486,0.0026774342693165762,11.159860631501033,0.023628292605280876,0.003451501252129674,-1.4154245853424072
19.5,0.34145841002464294,-0.04530483856797218,45.46332120895386,3.5174646377563477,2.7327327728271484,0.5019213557243347,2.7782903453935885,-0.029261095476489807,0.02614690018265069,0.002677434348887718,11.010945416044628,0.029225988313555717,-0.0036961217410862446,-1.7135133743286133
19.6,0.34145841002464294,-0.049670688807964325,45.76509618759155,3.571430206298828,2.7347323894500732,0.4884300231933594,2.7778182978485475,-0.03241347870518463,0.028765289813180918,0.0024383772542683597,10.794932416988,0.021873923018574715,-0.005335396621376276,-2.1801400184631348
19.700000000000003,0.34145841002464294,-0.05390843003988266,46.01269292831421,3.6145143508911133,2.7353546619415283,0.47629716992378235,2.7762893872870675,-0.035232920966837944,0.030531359498414953,0.0019534336215338956,10.604747900932868,0.025492383167147636,-0.005725865717977285,-2.4936459064483643
19.8,0.34145841002464294,-0.0580071359872818,46.31257247924805,3.6650657653808594,2.7392802238464355,0.4610207676887512,2.7775298460341,-0.039041610959215545,0.03310101274642152,0.0022471316235222914,10.358659823292614,0.02306992933154106,0.010585406795144081,-2.215078353881836
19.900000000000002,0.34145841002464294,-0.06195623055100441,46.61194944381714,3.7137069702148438,2.7432548999786377,0.44538959860801697,2.7788623562365093,-0.04175339383441867,0.03522606973773855,0.002663773641654877,10.082788506634763,0.01890087127685547,-0.0010665053268894553,-2.742530107498169
20.0,0.34145841002464294,-0.0657455325126648,46.85243034362793,3.75142765045166,2.745898723602295,0.4317798614501953,2.779285204387307,-0.044355402246712416,0.03676380782739619,0.002670603873430453,9.85064403681298,0.022189805284142494,-0.0034586500842124224,-2.9503250122070312
20.1,0.34145841002464294,-0.06936526298522949,47.15439796447754,3.79693603515625,2.748899221420288,0.41385364532470703,2.77947029054114,-0.04760959223481104,0.038987435656805916,0.0025339999312957045,9.543046715859642,0.01972626894712448,-0.001213921350426972,-2.6806247234344482
20.200000000000003,0.34145841002464294,-0.07280609011650085,47.46485376358032,3.8415536880493164,2.7494566440582275,0.3948546051979065,2.7772177784010332,-0.04983380514423735,0.0407152634476238,0.0018441510234710162,9.200468554946546,0.015548554249107838,-0.004147045314311981,-3.243879556655884
20.3,0.34145841002464294,-0.07605914771556854,47.707170486450195,3.874812126159668,2.752305269241333,0.3793475329875946,2.777834609990339,-0.05218932282757799,0.042051712671042865,0.0020149057116803848,8.923910648495594,0.0193154439330101,-0.00127280259039253,-3.430542230606079
20.400000000000002,0.34145841002464294,-0.07911603152751923,48.009267807006836,3.9142189025878906,2.75573992729187,0.35939714312553406,2.7785317708765707,-0.055045904360876474,0.04399134977198794,0.002240302152863094,8.565389833970546,0.01727176643908024,0.0006898909923620522,-3.1324334144592285
20.5,0.34145841002464294,-0.08196886628866196,48.252387046813965,3.9442787170410156,2.7581686973571777,0.34287962317466736,2.7788128236644964,-0.05709895014044042,0.0452515880397759,0.0022744531035243857,8.263472010618345,0.01835780218243599,-0.0010593435727059841,-3.29229998588562
20.6,0.34145841002464294,-0.08461028337478638,48.55645942687988,3.9796981811523438,2.7608063220977783,0.32185378670692444,2.778875688187993,-0.059087373865816195,0.0468490394685604,0.0022266419138553995,7.86760477094025,0.01354125514626503,-0.0005916684167459607,-3.6565475463867188
20.700000000000003,0.34145841002464294,-0.08703348785638809,48.8670654296875,4.013410568237305,2.762265205383301,0.299841970205307,2.777818068734585,-0.061164115128962915,0.048103024709663066,0.0019192832559210722,7.456538959900485,0.01175724808126688,-0.007332407869398594,-3.6258702278137207
20.8,0.34145841002464294,-0.08923221379518509,49.11246109008789,4.038240432739258,2.7635486125946045,0.28191855549812317,2.777181860706635,-0.0627687714532007,0.04895626541353547,0.0017621885462961642,7.119534678523907,0.013986974954605103,1.1571175491553731e-05,-3.636277198791504
